{"type":"FeatureCollection","features":[{"type":"Feature","properties":{"id":1,"name":"Muslim Association of Puget Sound","city":"seattle","state":"WA","Full Address":"Muslim Association of Puget Sound seattle WA"},"geometry":{"type":"Point","coordinates":[-122.1065216,47.6656647]}},{"type":"Feature","properties":{"id":2,"name":"Abubakar Islamic Center of Seattle","city":"seattle","state":"WA","Full Address":"Abubakar Islamic Center of Seattle seattle WA"},"geometry":{"type":"Point","coordinates":[-122.2928708,47.4691013]}},{"type":"Feature","properties":{"id":3,"name":"Idris Mosque","city":"seattle","state":"WA","Full Address":"Idris Mosque seattle WA"},"geometry":{"type":"Point","coordinates":[-122.312855,47.7087434]}},{"type":"Feature","properties":{"id":4,"name":"Islamic Center of Eastside (Bellevue Masjid)","city":"seattle","state":"WA","Full Address":"Islamic Center of Eastside (Bellevue Masjid) seattle WA"},"geometry":{"type":"Point","coordinates":[-122.1509069,47.6291282]}},{"type":"Feature","properties":{"id":5,"name":"Al Kariim Islamic Center","city":"seattle","state":"WA","Full Address":"Al Kariim Islamic Center seattle WA"},"geometry":{"type":"Point","coordinates":[-122.2773178,47.5510685]}}]}