{
"type": "FeatureCollection",
"name": "gay-seattle-pnts",
"crs": { "type": "name", "properties": { "name": "urn:ogc:def:crs:EPSG::900913" } },
"features": [
{ "type": "Feature", "properties": { "id": 0, "x": 37.16573, "y": -2.789046, "freq": 2011, "label": " gay" }, "geometry": { "type": "Point", "coordinates": [ 37.16573, -2.789046 ] } },
{ "type": "Feature", "properties": { "id": 1, "x": 37.057926, "y": -2.282797, "freq": 2144, "label": " seattle" }, "geometry": { "type": "Point", "coordinates": [ 37.057926, -2.282797 ] } },
{ "type": "Feature", "properties": { "id": 2, "x": 46.036709, "y": 34.464222, "freq": 26, "label": " atkins" }, "geometry": { "type": "Point", "coordinates": [ 46.036709, 34.464222 ] } },
{ "type": "Feature", "properties": { "id": 3, "x": -53.095089, "y": 4.320661, "freq": 25, "label": " pm" }, "geometry": { "type": "Point", "coordinates": [ -53.095089, 4.320661 ] } },
{ "type": "Feature", "properties": { "id": 4, "x": 66.797607, "y": 2.289053, "freq": 22, "label": " page" }, "geometry": { "type": "Point", "coordinates": [ 66.797607, 2.289053 ] } },
{ "type": "Feature", "properties": { "id": 5, "x": 44.631557, "y": -26.367331, "freq": 85, "label": " stories" }, "geometry": { "type": "Point", "coordinates": [ 44.631557, -26.367331 ] } },
{ "type": "Feature", "properties": { "id": 6, "x": 58.630936, "y": -21.373117, "freq": 53, "label": " exile" }, "geometry": { "type": "Point", "coordinates": [ 58.630936, -21.373117 ] } },
{ "type": "Feature", "properties": { "id": 7, "x": -17.112835, "y": 53.126556, "freq": 23, "label": " belonging" }, "geometry": { "type": "Point", "coordinates": [ -17.112835, 53.126556 ] } },
{ "type": "Feature", "properties": { "id": 8, "x": -35.584248, "y": 35.032104, "freq": 18, "label": " gary" }, "geometry": { "type": "Point", "coordinates": [ -35.584248, 35.032104 ] } },
{ "type": "Feature", "properties": { "id": 9, "x": -55.394398, "y": 2.74295, "freq": 13, "label": " l" }, "geometry": { "type": "Point", "coordinates": [ -55.394398, 2.74295 ] } },
{ "type": "Feature", "properties": { "id": 10, "x": 42.246277, "y": 5.414643, "freq": 249, "label": " university" }, "geometry": { "type": "Point", "coordinates": [ 42.246277, 5.414643 ] } },
{ "type": "Feature", "properties": { "id": 11, "x": 41.561008, "y": -0.06049, "freq": 386, "label": " washington" }, "geometry": { "type": "Point", "coordinates": [ 41.561008, -0.06049 ] } },
{ "type": "Feature", "properties": { "id": 12, "x": 36.339966, "y": -16.085268, "freq": 93, "label": " press" }, "geometry": { "type": "Point", "coordinates": [ 36.339966, -16.085268 ] } },
{ "type": "Feature", "properties": { "id": 13, "x": 10.247027, "y": -22.752932, "freq": 7, "label": " london" }, "geometry": { "type": "Point", "coordinates": [ 10.247027, -22.752932 ] } },
{ "type": "Feature", "properties": { "id": 14, "x": 40.668198, "y": 2.191301, "freq": 609, "label": " new" }, "geometry": { "type": "Point", "coordinates": [ 40.668198, 2.191301 ] } },
{ "type": "Feature", "properties": { "id": 15, "x": 67.232307, "y": 1.354125, "freq": 38, "label": " introduction" }, "geometry": { "type": "Point", "coordinates": [ 67.232307, 1.354125 ] } },
{ "type": "Feature", "properties": { "id": 16, "x": 18.144764, "y": 57.847153, "freq": 15, "label": " author" }, "geometry": { "type": "Point", "coordinates": [ 18.144764, 57.847153 ] } },
{ "type": "Feature", "properties": { "id": 17, "x": -58.646687, "y": -9.711964, "freq": 8, "label": " contents" }, "geometry": { "type": "Point", "coordinates": [ -58.646687, -9.711964 ] } },
{ "type": "Feature", "properties": { "id": 18, "x": 58.352295, "y": -21.98522, "freq": 51, "label": " list" }, "geometry": { "type": "Point", "coordinates": [ 58.352295, -21.98522 ] } },
{ "type": "Feature", "properties": { "id": 19, "x": -39.40379, "y": -23.488884, "freq": 8, "label": " illustrations" }, "geometry": { "type": "Point", "coordinates": [ -39.40379, -23.488884 ] } },
{ "type": "Feature", "properties": { "id": 20, "x": -10.708914, "y": 24.965996, "freq": 6, "label": " vii" }, "geometry": { "type": "Point", "coordinates": [ -10.708914, 24.965996 ] } },
{ "type": "Feature", "properties": { "id": 21, "x": 8.731271, "y": -19.758631, "freq": 6, "label": " acknowledgments" }, "geometry": { "type": "Point", "coordinates": [ 8.731271, -19.758631 ] } },
{ "type": "Feature", "properties": { "id": 22, "x": -11.693443, "y": -38.583702, "freq": 5, "label": " ix" }, "geometry": { "type": "Point", "coordinates": [ -11.693443, -38.583702 ] } },
{ "type": "Feature", "properties": { "id": 23, "x": 39.056705, "y": -3.021286, "freq": 143, "label": " part" }, "geometry": { "type": "Point", "coordinates": [ 39.056705, -3.021286 ] } },
{ "type": "Feature", "properties": { "id": 24, "x": 39.311462, "y": -2.72275, "freq": 803, "label": " one" }, "geometry": { "type": "Point", "coordinates": [ 39.311462, -2.72275 ] } },
{ "type": "Feature", "properties": { "id": 25, "x": 49.818604, "y": 28.539297, "freq": 32, "label": " imagining" }, "geometry": { "type": "Point", "coordinates": [ 49.818604, 28.539297 ] } },
{ "type": "Feature", "properties": { "id": 26, "x": -16.971212, "y": 18.897078, "freq": 12, "label": " prologue" }, "geometry": { "type": "Point", "coordinates": [ -16.971212, 18.897078 ] } },
{ "type": "Feature", "properties": { "id": 27, "x": 41.518192, "y": 1.202603, "freq": 267, "label": " law" }, "geometry": { "type": "Point", "coordinates": [ 41.518192, 1.202603 ] } },
{ "type": "Feature", "properties": { "id": 28, "x": 41.177231, "y": 1.243925, "freq": 142, "label": " sodomy" }, "geometry": { "type": "Point", "coordinates": [ 41.177231, 1.243925 ] } },
{ "type": "Feature", "properties": { "id": 29, "x": 37.126518, "y": -16.062073, "freq": 86, "label": " mudflat" }, "geometry": { "type": "Point", "coordinates": [ 37.126518, -16.062073 ] } },
{ "type": "Feature", "properties": { "id": 30, "x": 40.031796, "y": -21.515867, "freq": 87, "label": " mental" }, "geometry": { "type": "Point", "coordinates": [ 40.031796, -21.515867 ] } },
{ "type": "Feature", "properties": { "id": 31, "x": 41.17448, "y": 3.132855, "freq": 169, "label": " health" }, "geometry": { "type": "Point", "coordinates": [ 41.17448, 3.132855 ] } },
{ "type": "Feature", "properties": { "id": 32, "x": 56.69009, "y": 21.497145, "freq": 43, "label": " psychiatric" }, "geometry": { "type": "Point", "coordinates": [ 56.69009, 21.497145 ] } },
{ "type": "Feature", "properties": { "id": 33, "x": -39.879692, "y": 28.280132, "freq": 18, "label": " pick" }, "geometry": { "type": "Point", "coordinates": [ -39.879692, 28.280132 ] } },
{ "type": "Feature", "properties": { "id": 34, "x": 40.528866, "y": 0.937437, "freq": 434, "label": " two" }, "geometry": { "type": "Point", "coordinates": [ 40.528866, 0.937437 ] } },
{ "type": "Feature", "properties": { "id": 35, "x": 53.370308, "y": -25.522572, "freq": 52, "label": " creating" }, "geometry": { "type": "Point", "coordinates": [ 53.370308, -25.522572 ] } },
{ "type": "Feature", "properties": { "id": 36, "x": 58.681732, "y": 18.678577, "freq": 37, "label": " refuges" }, "geometry": { "type": "Point", "coordinates": [ 58.681732, 18.678577 ] } },
{ "type": "Feature", "properties": { "id": 37, "x": 66.261658, "y": -8.060371, "freq": 41, "label": " saloons" }, "geometry": { "type": "Point", "coordinates": [ 66.261658, -8.060371 ] } },
{ "type": "Feature", "properties": { "id": 38, "x": 49.308723, "y": -26.753744, "freq": 58, "label": " vaudeville" }, "geometry": { "type": "Point", "coordinates": [ 49.308723, -26.753744 ] } },
{ "type": "Feature", "properties": { "id": 39, "x": 18.835857, "y": 30.926641, "freq": 9, "label": " stirrings" }, "geometry": { "type": "Point", "coordinates": [ 18.835857, 30.926641 ] } },
{ "type": "Feature", "properties": { "id": 40, "x": -28.914618, "y": 43.174587, "freq": 22, "label": " resistance" }, "geometry": { "type": "Point", "coordinates": [ -28.914618, 43.174587 ] } },
{ "type": "Feature", "properties": { "id": 41, "x": 37.677677, "y": -17.4098, "freq": 127, "label": " dance" }, "geometry": { "type": "Point", "coordinates": [ 37.677677, -17.4098 ] } },
{ "type": "Feature", "properties": { "id": 42, "x": 12.602139, "y": 36.869003, "freq": 11, "label": " enemy" }, "geometry": { "type": "Point", "coordinates": [ 12.602139, 36.869003 ] } },
{ "type": "Feature", "properties": { "id": 43, "x": -52.169788, "y": -24.400711, "freq": 20, "label": " crossing" }, "geometry": { "type": "Point", "coordinates": [ -52.169788, -24.400711 ] } },
{ "type": "Feature", "properties": { "id": 44, "x": -43.228676, "y": -27.669899, "freq": 14, "label": " challenging" }, "geometry": { "type": "Point", "coordinates": [ -43.228676, -27.669899 ] } },
{ "type": "Feature", "properties": { "id": 45, "x": 40.65115, "y": 2.629878, "freq": 404, "label": " police" }, "geometry": { "type": "Point", "coordinates": [ 40.65115, 2.629878 ] } },
{ "type": "Feature", "properties": { "id": 46, "x": 40.483051, "y": 1.375311, "freq": 183, "label": " three" }, "geometry": { "type": "Point", "coordinates": [ 40.483051, 1.375311 ] } },
{ "type": "Feature", "properties": { "id": 47, "x": 41.780918, "y": -10.058313, "freq": 142, "label": " claiming" }, "geometry": { "type": "Point", "coordinates": [ 41.780918, -10.058313 ] } },
{ "type": "Feature", "properties": { "id": 48, "x": 41.759266, "y": -10.009962, "freq": 159, "label": " civic" }, "geometry": { "type": "Point", "coordinates": [ 41.759266, -10.009962 ] } },
{ "type": "Feature", "properties": { "id": 49, "x": 41.801846, "y": -9.946949, "freq": 243, "label": " life" }, "geometry": { "type": "Point", "coordinates": [ 41.801846, -9.946949 ] } },
{ "type": "Feature", "properties": { "id": 50, "x": 40.35593, "y": 1.855612, "freq": 89, "label": " robert" }, "geometry": { "type": "Point", "coordinates": [ 40.35593, 1.855612 ] } },
{ "type": "Feature", "properties": { "id": 51, "x": 63.5322, "y": 13.06868, "freq": 58, "label": " rules" }, "geometry": { "type": "Point", "coordinates": [ 63.5322, 13.06868 ] } },
{ "type": "Feature", "properties": { "id": 52, "x": 10.02174, "y": 62.20282, "freq": 51, "label": " liberation" }, "geometry": { "type": "Point", "coordinates": [ 10.02174, 62.20282 ] } },
{ "type": "Feature", "properties": { "id": 53, "x": -46.020123, "y": 22.969368, "freq": 20, "label": " chautauquas" }, "geometry": { "type": "Point", "coordinates": [ -46.020123, 22.969368 ] } },
{ "type": "Feature", "properties": { "id": 54, "x": 46.463364, "y": 35.354424, "freq": 30, "label": " feminism" }, "geometry": { "type": "Point", "coordinates": [ 46.463364, 35.354424 ] } },
{ "type": "Feature", "properties": { "id": 55, "x": 48.570866, "y": 32.930084, "freq": 31, "label": " lesbianism" }, "geometry": { "type": "Point", "coordinates": [ 48.570866, 32.930084 ] } },
{ "type": "Feature", "properties": { "id": 56, "x": -40.117973, "y": 30.894218, "freq": 20, "label": " pulpits" }, "geometry": { "type": "Point", "coordinates": [ -40.117973, 30.894218 ] } },
{ "type": "Feature", "properties": { "id": 57, "x": 20.573248, "y": 57.035843, "freq": 29, "label": " healing" }, "geometry": { "type": "Point", "coordinates": [ 20.573248, 57.035843 ] } },
{ "type": "Feature", "properties": { "id": 58, "x": 39.485992, "y": -23.333622, "freq": 57, "label": " v" }, "geometry": { "type": "Point", "coordinates": [ 39.485992, -23.333622 ] } },
{ "type": "Feature", "properties": { "id": 59, "x": 37.463963, "y": -10.581848, "freq": 478, "label": " first" }, "geometry": { "type": "Point", "coordinates": [ 37.463963, -10.581848 ] } },
{ "type": "Feature", "properties": { "id": 60, "x": 65.875427, "y": 7.207241, "freq": 37, "label": " paperback" }, "geometry": { "type": "Point", "coordinates": [ 65.875427, 7.207241 ] } },
{ "type": "Feature", "properties": { "id": 61, "x": 55.427792, "y": -24.032272, "freq": 49, "label": " edition" }, "geometry": { "type": "Point", "coordinates": [ 55.427792, -24.032272 ] } },
{ "type": "Feature", "properties": { "id": 62, "x": -22.278906, "y": -5.928431, "freq": 16, "label": " printed" }, "geometry": { "type": "Point", "coordinates": [ -22.278906, -5.928431 ] } },
{ "type": "Feature", "properties": { "id": 63, "x": -3.564561, "y": 31.181456, "freq": 4, "label": " bound" }, "geometry": { "type": "Point", "coordinates": [ -3.564561, 31.181456 ] } },
{ "type": "Feature", "properties": { "id": 64, "x": 65.611687, "y": 5.956346, "freq": 42, "label": " united" }, "geometry": { "type": "Point", "coordinates": [ 65.611687, 5.956346 ] } },
{ "type": "Feature", "properties": { "id": 65, "x": 48.543747, "y": 30.146032, "freq": 79, "label": " states" }, "geometry": { "type": "Point", "coordinates": [ 48.543747, 30.146032 ] } },
{ "type": "Feature", "properties": { "id": 66, "x": -36.594566, "y": 34.902458, "freq": 14, "label": " america" }, "geometry": { "type": "Point", "coordinates": [ -36.594566, 34.902458 ] } },
{ "type": "Feature", "properties": { "id": 67, "x": -17.696913, "y": 7.904083, "freq": 8, "label": " designed" }, "geometry": { "type": "Point", "coordinates": [ -17.696913, 7.904083 ] } },
{ "type": "Feature", "properties": { "id": 68, "x": 40.149044, "y": 4.644588, "freq": 254, "label": " rights" }, "geometry": { "type": "Point", "coordinates": [ 40.149044, 4.644588 ] } },
{ "type": "Feature", "properties": { "id": 69, "x": -4.669185, "y": 35.276432, "freq": 9, "label": " publication" }, "geometry": { "type": "Point", "coordinates": [ -4.669185, 35.276432 ] } },
{ "type": "Feature", "properties": { "id": 70, "x": 40.815357, "y": 5.32071, "freq": 217, "label": " may" }, "geometry": { "type": "Point", "coordinates": [ 40.815357, 5.32071 ] } },
{ "type": "Feature", "properties": { "id": 71, "x": 15.398299, "y": 32.135345, "freq": 6, "label": " transmitted" }, "geometry": { "type": "Point", "coordinates": [ 15.398299, 32.135345 ] } },
{ "type": "Feature", "properties": { "id": 72, "x": 47.392174, "y": 32.107399, "freq": 32, "label": " form" }, "geometry": { "type": "Point", "coordinates": [ 47.392174, 32.107399 ] } },
{ "type": "Feature", "properties": { "id": 73, "x": -56.276588, "y": -19.962282, "freq": 15, "label": " means" }, "geometry": { "type": "Point", "coordinates": [ -56.276588, -19.962282 ] } },
{ "type": "Feature", "properties": { "id": 74, "x": 10.650946, "y": -4.466547, "freq": 6, "label": " includ" }, "geometry": { "type": "Point", "coordinates": [ 10.650946, -4.466547 ] } },
{ "type": "Feature", "properties": { "id": 75, "x": 41.026829, "y": 4.444485, "freq": 199, "label": " ing" }, "geometry": { "type": "Point", "coordinates": [ 41.026829, 4.444485 ] } },
{ "type": "Feature", "properties": { "id": 76, "x": 39.748447, "y": -23.031382, "freq": 80, "label": " information" }, "geometry": { "type": "Point", "coordinates": [ 39.748447, -23.031382 ] } },
{ "type": "Feature", "properties": { "id": 77, "x": 60.933563, "y": 14.896092, "freq": 48, "label": " system" }, "geometry": { "type": "Point", "coordinates": [ 60.933563, 14.896092 ] } },
{ "type": "Feature", "properties": { "id": 78, "x": 53.86166, "y": -25.226433, "freq": 57, "label": " without" }, "geometry": { "type": "Point", "coordinates": [ 53.86166, -25.226433 ] } },
{ "type": "Feature", "properties": { "id": 79, "x": -7.370206, "y": -29.919912, "freq": 7, "label": " permission" }, "geometry": { "type": "Point", "coordinates": [ -7.370206, -29.919912 ] } },
{ "type": "Feature", "properties": { "id": 80, "x": -30.785307, "y": 42.343414, "freq": 24, "label": " writing" }, "geometry": { "type": "Point", "coordinates": [ -30.785307, 42.343414 ] } },
{ "type": "Feature", "properties": { "id": 81, "x": 37.59779, "y": 42.296139, "freq": 30, "label": " box" }, "geometry": { "type": "Point", "coordinates": [ 37.59779, 42.296139 ] } },
{ "type": "Feature", "properties": { "id": 82, "x": 55.809299, "y": 20.062347, "freq": 0, "label": " www" }, "geometry": { "type": "Point", "coordinates": [ 55.809299, 20.062347 ] } },
{ "type": "Feature", "properties": { "id": 83, "x": 15.792378, "y": -3.633233, "freq": 3, "label": " edu" }, "geometry": { "type": "Point", "coordinates": [ 15.792378, -3.633233 ] } },
{ "type": "Feature", "properties": { "id": 84, "x": 17.884451, "y": 22.799337, "freq": 7, "label": " library" }, "geometry": { "type": "Point", "coordinates": [ 17.884451, 22.799337 ] } },
{ "type": "Feature", "properties": { "id": 85, "x": 16.893593, "y": 9.398274, "freq": 6, "label": " congress" }, "geometry": { "type": "Point", "coordinates": [ 16.893593, 9.398274 ] } },
{ "type": "Feature", "properties": { "id": 86, "x": 55.224648, "y": -25.089159, "freq": 60, "label": " pages" }, "geometry": { "type": "Point", "coordinates": [ 55.224648, -25.089159 ] } },
{ "type": "Feature", "properties": { "id": 87, "x": -9.62288, "y": -44.135883, "freq": 6, "label": " references" }, "geometry": { "type": "Point", "coordinates": [ -9.62288, -44.135883 ] } },
{ "type": "Feature", "properties": { "id": 88, "x": 40.858162, "y": 39.368988, "freq": 19, "label": " index" }, "geometry": { "type": "Point", "coordinates": [ 40.858162, 39.368988 ] } },
{ "type": "Feature", "properties": { "id": 89, "x": 21.521721, "y": 56.092052, "freq": 37, "label": " paper" }, "geometry": { "type": "Point", "coordinates": [ 21.521721, 56.092052 ] } },
{ "type": "Feature", "properties": { "id": 90, "x": 39.8741, "y": -0.592013, "freq": 0, "label": " gays" }, "geometry": { "type": "Point", "coordinates": [ 39.8741, -0.592013 ] } },
{ "type": "Feature", "properties": { "id": 91, "x": 42.328671, "y": 5.202078, "freq": 406, "label": " state" }, "geometry": { "type": "Point", "coordinates": [ 42.328671, 5.202078 ] } },
{ "type": "Feature", "properties": { "id": 92, "x": 39.213333, "y": -2.688781, "freq": 121, "label": " social" }, "geometry": { "type": "Point", "coordinates": [ 39.213333, -2.688781 ] } },
{ "type": "Feature", "properties": { "id": 93, "x": 10.532899, "y": 34.771099, "freq": 9, "label": " conditions" }, "geometry": { "type": "Point", "coordinates": [ 10.532899, 34.771099 ] } },
{ "type": "Feature", "properties": { "id": 94, "x": 38.363491, "y": -12.615464, "freq": 135, "label": " history" }, "geometry": { "type": "Point", "coordinates": [ 38.363491, -12.615464 ] } },
{ "type": "Feature", "properties": { "id": 95, "x": 65.441208, "y": 5.128005, "freq": 52, "label": " movement" }, "geometry": { "type": "Point", "coordinates": [ 65.441208, 5.128005 ] } },
{ "type": "Feature", "properties": { "id": 96, "x": 40.884281, "y": 5.045983, "freq": 500, "label": " aids" }, "geometry": { "type": "Point", "coordinates": [ 40.884281, 5.045983 ] } },
{ "type": "Feature", "properties": { "id": 97, "x": 66.67997, "y": -6.732319, "freq": 53, "label": " disease" }, "geometry": { "type": "Point", "coordinates": [ 66.67997, -6.732319 ] } },
{ "type": "Feature", "properties": { "id": 98, "x": -1.312386, "y": 36.129208, "freq": 9, "label": " title" }, "geometry": { "type": "Point", "coordinates": [ -1.312386, 36.129208 ] } },
{ "type": "Feature", "properties": { "id": 99, "x": 39.796131, "y": -24.188793, "freq": 4, "label": " u" }, "geometry": { "type": "Point", "coordinates": [ 39.796131, -24.188793 ] } },
{ "type": "Feature", "properties": { "id": 100, "x": 37.712841, "y": -7.253574, "freq": 114, "label": " used" }, "geometry": { "type": "Point", "coordinates": [ 37.712841, -7.253574 ] } },
{ "type": "Feature", "properties": { "id": 101, "x": 62.09317, "y": 13.281658, "freq": 39, "label": " free" }, "geometry": { "type": "Point", "coordinates": [ 62.09317, 13.281658 ] } },
{ "type": "Feature", "properties": { "id": 102, "x": 2.069057, "y": -21.727142, "freq": 7, "label": " meets" }, "geometry": { "type": "Point", "coordinates": [ 2.069057, -21.727142 ] } },
{ "type": "Feature", "properties": { "id": 103, "x": 38.46209, "y": -4.513085, "freq": 103, "label": " american" }, "geometry": { "type": "Point", "coordinates": [ 38.46209, -4.513085 ] } },
{ "type": "Feature", "properties": { "id": 104, "x": 38.628654, "y": -21.335135, "freq": 75, "label": " national" }, "geometry": { "type": "Point", "coordinates": [ 38.628654, -21.335135 ] } },
{ "type": "Feature", "properties": { "id": 105, "x": 66.503204, "y": -6.456385, "freq": 42, "label": " leg" }, "geometry": { "type": "Point", "coordinates": [ 66.503204, -6.456385 ] } },
{ "type": "Feature", "properties": { "id": 106, "x": -18.137074, "y": -0.840507, "freq": 12, "label": " confronting" }, "geometry": { "type": "Point", "coordinates": [ -18.137074, -0.840507 ] } },
{ "type": "Feature", "properties": { "id": 107, "x": -57.666309, "y": -0.841922, "freq": 16, "label": " crackdown" }, "geometry": { "type": "Point", "coordinates": [ -57.666309, -0.841922 ] } },
{ "type": "Feature", "properties": { "id": 108, "x": -25.483496, "y": -5.58141, "freq": 15, "label": " insiders" }, "geometry": { "type": "Point", "coordinates": [ -25.483496, -5.58141 ] } },
{ "type": "Feature", "properties": { "id": 109, "x": 39.684505, "y": -1.086924, "freq": 598, "label": " city" }, "geometry": { "type": "Point", "coordinates": [ 39.684505, -1.086924 ] } },
{ "type": "Feature", "properties": { "id": 110, "x": 51.858124, "y": -26.07127, "freq": 65, "label": " hall" }, "geometry": { "type": "Point", "coordinates": [ 51.858124, -26.07127 ] } },
{ "type": "Feature", "properties": { "id": 111, "x": 67.295334, "y": -2.202049, "freq": 50, "label": " rhetoric" }, "geometry": { "type": "Point", "coordinates": [ 67.295334, -2.202049 ] } },
{ "type": "Feature", "properties": { "id": 112, "x": 37.582058, "y": 43.289753, "freq": 35, "label": " privacy" }, "geometry": { "type": "Point", "coordinates": [ 37.582058, 43.289753 ] } },
{ "type": "Feature", "properties": { "id": 113, "x": 38.955528, "y": -23.95237, "freq": 129, "label": " capitol" }, "geometry": { "type": "Point", "coordinates": [ 38.955528, -23.95237 ] } },
{ "type": "Feature", "properties": { "id": 114, "x": -47.660954, "y": 16.186562, "freq": 17, "label": " limited" }, "geometry": { "type": "Point", "coordinates": [ -47.660954, 16.186562 ] } },
{ "type": "Feature", "properties": { "id": 115, "x": 40.775135, "y": 41.664398, "freq": 40, "label": " conversation" }, "geometry": { "type": "Point", "coordinates": [ 40.775135, 41.664398 ] } },
{ "type": "Feature", "properties": { "id": 116, "x": 39.153214, "y": -3.074249, "freq": 140, "label": " initiative" }, "geometry": { "type": "Point", "coordinates": [ 39.153214, -3.074249 ] } },
{ "type": "Feature", "properties": { "id": 117, "x": 52.882225, "y": -25.134348, "freq": 86, "label": " thirteen" }, "geometry": { "type": "Point", "coordinates": [ 52.882225, -25.134348 ] } },
{ "type": "Feature", "properties": { "id": 118, "x": 66.440567, "y": -7.531366, "freq": 53, "label": " coming" }, "geometry": { "type": "Point", "coordinates": [ 66.440567, -7.531366 ] } },
{ "type": "Feature", "properties": { "id": 119, "x": 37.96682, "y": -19.645449, "freq": 90, "label": " together" }, "geometry": { "type": "Point", "coordinates": [ 37.96682, -19.645449 ] } },
{ "type": "Feature", "properties": { "id": 120, "x": -32.249706, "y": -20.207191, "freq": 10, "label": " learning" }, "geometry": { "type": "Point", "coordinates": [ -32.249706, -20.207191 ] } },
{ "type": "Feature", "properties": { "id": 121, "x": -20.179752, "y": -4.761757, "freq": 11, "label": " persuade" }, "geometry": { "type": "Point", "coordinates": [ -20.179752, -4.761757 ] } },
{ "type": "Feature", "properties": { "id": 122, "x": 37.202629, "y": -16.290033, "freq": 77, "label": " broadway" }, "geometry": { "type": "Point", "coordinates": [ 37.202629, -16.290033 ] } },
{ "type": "Feature", "properties": { "id": 123, "x": 13.864907, "y": -1.139282, "freq": 9, "label": " parades" }, "geometry": { "type": "Point", "coordinates": [ 13.864907, -1.139282 ] } },
{ "type": "Feature", "properties": { "id": 124, "x": 39.696075, "y": -1.603879, "freq": 163, "label": " catholic" }, "geometry": { "type": "Point", "coordinates": [ 39.696075, -1.603879 ] } },
{ "type": "Feature", "properties": { "id": 125, "x": 41.923241, "y": 3.946178, "freq": 234, "label": " hill" }, "geometry": { "type": "Point", "coordinates": [ 41.923241, 3.946178 ] } },
{ "type": "Feature", "properties": { "id": 126, "x": 0.950854, "y": 34.022701, "freq": 9, "label": " clash" }, "geometry": { "type": "Point", "coordinates": [ 0.950854, 34.022701 ] } },
{ "type": "Feature", "properties": { "id": 127, "x": -39.736485, "y": 27.692865, "freq": 20, "label": " dogma" }, "geometry": { "type": "Point", "coordinates": [ -39.736485, 27.692865 ] } },
{ "type": "Feature", "properties": { "id": 128, "x": 62.521141, "y": 11.271437, "freq": 45, "label": " ministry" }, "geometry": { "type": "Point", "coordinates": [ 62.521141, 11.271437 ] } },
{ "type": "Feature", "properties": { "id": 129, "x": 37.451889, "y": -18.752569, "freq": 74, "label": " hospital" }, "geometry": { "type": "Point", "coordinates": [ 37.451889, -18.752569 ] } },
{ "type": "Feature", "properties": { "id": 130, "x": -11.741595, "y": -41.41647, "freq": 5, "label": " plague" }, "geometry": { "type": "Point", "coordinates": [ -11.741595, -41.41647 ] } },
{ "type": "Feature", "properties": { "id": 131, "x": 10.762184, "y": -2.868754, "freq": 6, "label": " arrives" }, "geometry": { "type": "Point", "coordinates": [ 10.762184, -2.868754 ] } },
{ "type": "Feature", "properties": { "id": 132, "x": 67.047844, "y": -4.32824, "freq": 47, "label": " becoming" }, "geometry": { "type": "Point", "coordinates": [ 67.047844, -4.32824 ] } },
{ "type": "Feature", "properties": { "id": 133, "x": 9.891964, "y": 61.146923, "freq": 29, "label": " compassion" }, "geometry": { "type": "Point", "coordinates": [ 9.891964, 61.146923 ] } },
{ "type": "Feature", "properties": { "id": 134, "x": 39.197342, "y": -3.026802, "freq": 120, "label": " cal" }, "geometry": { "type": "Point", "coordinates": [ 39.197342, -3.026802 ] } },
{ "type": "Feature", "properties": { "id": 135, "x": -52.707027, "y": 2.585242, "freq": 16, "label": " conscience" }, "geometry": { "type": "Point", "coordinates": [ -52.707027, 2.585242 ] } },
{ "type": "Feature", "properties": { "id": 136, "x": -9.915112, "y": 31.285519, "freq": 9, "label": " epilogue" }, "geometry": { "type": "Point", "coordinates": [ -9.915112, 31.285519 ] } },
{ "type": "Feature", "properties": { "id": 137, "x": 56.594509, "y": -23.566597, "freq": 62, "label": " notes" }, "geometry": { "type": "Point", "coordinates": [ 56.594509, -23.566597 ] } },
{ "type": "Feature", "properties": { "id": 138, "x": -35.155029, "y": 36.96566, "freq": 21, "label": " sources" }, "geometry": { "type": "Point", "coordinates": [ -35.155029, 36.96566 ] } },
{ "type": "Feature", "properties": { "id": 139, "x": 12.347292, "y": -6.691019, "freq": 5, "label": " vi" }, "geometry": { "type": "Point", "coordinates": [ 12.347292, -6.691019 ] } },
{ "type": "Feature", "properties": { "id": 140, "x": 5.716836, "y": 61.412674, "freq": 23, "label": " albert" }, "geometry": { "type": "Point", "coordinates": [ 5.716836, 61.412674 ] } },
{ "type": "Feature", "properties": { "id": 141, "x": 40.999092, "y": 4.821157, "freq": 40, "label": " e" }, "geometry": { "type": "Point", "coordinates": [ 40.999092, 4.821157 ] } },
{ "type": "Feature", "properties": { "id": 142, "x": 16.489063, "y": 0.917791, "freq": 8, "label": " mead" }, "geometry": { "type": "Point", "coordinates": [ 16.489063, 0.917791 ] } },
{ "type": "Feature", "properties": { "id": 143, "x": 36.77837, "y": -14.859124, "freq": 86, "label": " george" }, "geometry": { "type": "Point", "coordinates": [ 36.77837, -14.859124 ] } },
{ "type": "Feature", "properties": { "id": 144, "x": 37.269115, "y": -17.623262, "freq": 64, "label": " cotterill" }, "geometry": { "type": "Point", "coordinates": [ 37.269115, -17.623262 ] } },
{ "type": "Feature", "properties": { "id": 145, "x": 66.790413, "y": 0.136125, "freq": 39, "label": " mark" }, "geometry": { "type": "Point", "coordinates": [ 66.790413, 0.136125 ] } },
{ "type": "Feature", "properties": { "id": 146, "x": 64.726036, "y": -12.58357, "freq": 38, "label": " matthews" }, "geometry": { "type": "Point", "coordinates": [ 64.726036, -12.58357 ] } },
{ "type": "Feature", "properties": { "id": 147, "x": 41.176014, "y": 5.498996, "freq": 146, "label": " john" }, "geometry": { "type": "Point", "coordinates": [ 41.176014, 5.498996 ] } },
{ "type": "Feature", "properties": { "id": 148, "x": 62.785099, "y": -15.611395, "freq": 42, "label": " considine" }, "geometry": { "type": "Point", "coordinates": [ 62.785099, -15.611395 ] } },
{ "type": "Feature", "properties": { "id": 149, "x": -13.099983, "y": 56.222225, "freq": 24, "label": " walter" }, "geometry": { "type": "Point", "coordinates": [ -13.099983, 56.222225 ] } },
{ "type": "Feature", "properties": { "id": 150, "x": 38.81237, "y": -21.446606, "freq": 49, "label": " freeman" }, "geometry": { "type": "Point", "coordinates": [ 38.81237, -21.446606 ] } },
{ "type": "Feature", "properties": { "id": 151, "x": -28.411879, "y": -14.35638, "freq": 12, "label": " transorbital" }, "geometry": { "type": "Point", "coordinates": [ -28.411879, -14.35638 ] } },
{ "type": "Feature", "properties": { "id": 152, "x": 58.016098, "y": 19.111074, "freq": 30, "label": " lobotomy" }, "geometry": { "type": "Point", "coordinates": [ 58.016098, 19.111074 ] } },
{ "type": "Feature", "properties": { "id": 153, "x": -0.998533, "y": -59.548935, "freq": 6, "label": " procedure" }, "geometry": { "type": "Point", "coordinates": [ -0.998533, -59.548935 ] } },
{ "type": "Feature", "properties": { "id": 154, "x": 43.22768, "y": 38.162502, "freq": 51, "label": " frances" }, "geometry": { "type": "Point", "coordinates": [ 43.22768, 38.162502 ] } },
{ "type": "Feature", "properties": { "id": 155, "x": 41.081326, "y": 5.315622, "freq": 190, "label": " farmer" }, "geometry": { "type": "Point", "coordinates": [ 41.081326, 5.315622 ] } },
{ "type": "Feature", "properties": { "id": 156, "x": 40.958836, "y": -24.443165, "freq": 87, "label": " second" }, "geometry": { "type": "Point", "coordinates": [ 40.958836, -24.443165 ] } },
{ "type": "Feature", "properties": { "id": 157, "x": 62.671982, "y": -14.819682, "freq": 69, "label": " avenue" }, "geometry": { "type": "Point", "coordinates": [ 62.671982, -14.819682 ] } },
{ "type": "Feature", "properties": { "id": 158, "x": 66.706139, "y": -1.866855, "freq": 48, "label": " south" }, "geometry": { "type": "Point", "coordinates": [ 66.706139, -1.866855 ] } },
{ "type": "Feature", "properties": { "id": 159, "x": 39.566132, "y": -1.871597, "freq": 123, "label": " street" }, "geometry": { "type": "Point", "coordinates": [ 39.566132, -1.871597 ] } },
{ "type": "Feature", "properties": { "id": 160, "x": 64.946297, "y": -11.809158, "freq": 46, "label": " garden" }, "geometry": { "type": "Point", "coordinates": [ 64.946297, -11.809158 ] } },
{ "type": "Feature", "properties": { "id": 161, "x": -13.890364, "y": 54.791676, "freq": 26, "label": " allah" }, "geometry": { "type": "Point", "coordinates": [ -13.890364, 54.791676 ] } },
{ "type": "Feature", "properties": { "id": 162, "x": 39.749054, "y": -22.139549, "freq": 91, "label": " chief" }, "geometry": { "type": "Point", "coordinates": [ 39.749054, -22.139549 ] } },
{ "type": "Feature", "properties": { "id": 163, "x": 15.023733, "y": 59.650051, "freq": 24, "label": " frank" }, "geometry": { "type": "Point", "coordinates": [ 15.023733, 59.650051 ] } },
{ "type": "Feature", "properties": { "id": 164, "x": 42.670532, "y": 37.515858, "freq": 30, "label": " ramon" }, "geometry": { "type": "Point", "coordinates": [ 42.670532, 37.515858 ] } },
{ "type": "Feature", "properties": { "id": 165, "x": 38.875938, "y": -22.192972, "freq": 88, "label": " mayor" }, "geometry": { "type": "Point", "coordinates": [ 38.875938, -22.192972 ] } },
{ "type": "Feature", "properties": { "id": 166, "x": -16.482307, "y": 10.014649, "freq": 8, "label": " dorm" }, "geometry": { "type": "Point", "coordinates": [ -16.482307, 10.014649 ] } },
{ "type": "Feature", "properties": { "id": 167, "x": -57.547386, "y": -10.694355, "freq": 14, "label": " braman" }, "geometry": { "type": "Point", "coordinates": [ -57.547386, -10.694355 ] } },
{ "type": "Feature", "properties": { "id": 168, "x": -28.754444, "y": -13.279379, "freq": 12, "label": " mineo" }, "geometry": { "type": "Point", "coordinates": [ -28.754444, -13.279379 ] } },
{ "type": "Feature", "properties": { "id": 169, "x": 12.12695, "y": 60.431084, "freq": 21, "label": " katagiri" }, "geometry": { "type": "Point", "coordinates": [ 12.12695, 60.431084 ] } },
{ "type": "Feature", "properties": { "id": 170, "x": 64.3479, "y": 9.302386, "freq": 35, "label": " peter" }, "geometry": { "type": "Point", "coordinates": [ 64.3479, 9.302386 ] } },
{ "type": "Feature", "properties": { "id": 171, "x": -48.866943, "y": 15.85857, "freq": 17, "label": " wichern" }, "geometry": { "type": "Point", "coordinates": [ -48.866943, 15.85857 ] } },
{ "type": "Feature", "properties": { "id": 172, "x": 14.989898, "y": 59.871643, "freq": 21, "label": " cover" }, "geometry": { "type": "Point", "coordinates": [ 14.989898, 59.871643 ] } },
{ "type": "Feature", "properties": { "id": 173, "x": 66.916962, "y": 1.668131, "freq": 43, "label": " magazine" }, "geometry": { "type": "Point", "coordinates": [ 66.916962, 1.668131 ] } },
{ "type": "Feature", "properties": { "id": 174, "x": 38.0051, "y": -15.816097, "freq": 175, "label": " dorian" }, "geometry": { "type": "Point", "coordinates": [ 38.0051, -15.816097 ] } },
{ "type": "Feature", "properties": { "id": 175, "x": -42.587185, "y": 24.206797, "freq": 18, "label": " columns" }, "geometry": { "type": "Point", "coordinates": [ -42.587185, 24.206797 ] } },
{ "type": "Feature", "properties": { "id": 176, "x": 19.443687, "y": 22.229366, "freq": 8, "label": " ladder" }, "geometry": { "type": "Point", "coordinates": [ 19.443687, 22.229366 ] } },
{ "type": "Feature", "properties": { "id": 177, "x": 37.284595, "y": -14.723467, "freq": 103, "label": " letter" }, "geometry": { "type": "Point", "coordinates": [ 37.284595, -14.723467 ] } },
{ "type": "Feature", "properties": { "id": 178, "x": 39.679558, "y": 1.679985, "freq": 317, "label": " women" }, "geometry": { "type": "Point", "coordinates": [ 39.679558, 1.679985 ] } },
{ "type": "Feature", "properties": { "id": 179, "x": -58.466049, "y": -0.929399, "freq": 24, "label": " resource" }, "geometry": { "type": "Point", "coordinates": [ -58.466049, -0.929399 ] } },
{ "type": "Feature", "properties": { "id": 180, "x": 38.130352, "y": -11.37751, "freq": 143, "label": " center" }, "geometry": { "type": "Point", "coordinates": [ 38.130352, -11.37751 ] } },
{ "type": "Feature", "properties": { "id": 181, "x": -13.543723, "y": 23.322546, "freq": 7, "label": " laurie" }, "geometry": { "type": "Point", "coordinates": [ -13.543723, 23.322546 ] } },
{ "type": "Feature", "properties": { "id": 182, "x": -44.655529, "y": -24.450747, "freq": 11, "label": " morton" }, "geometry": { "type": "Point", "coordinates": [ -44.655529, -24.450747 ] } },
{ "type": "Feature", "properties": { "id": 183, "x": -27.60866, "y": -14.560565, "freq": 9, "label": " tamara" }, "geometry": { "type": "Point", "coordinates": [ -27.60866, -14.560565 ] } },
{ "type": "Feature", "properties": { "id": 184, "x": -53.227272, "y": 6.526627, "freq": 13, "label": " turner" }, "geometry": { "type": "Point", "coordinates": [ -53.227272, 6.526627 ] } },
{ "type": "Feature", "properties": { "id": 185, "x": -42.426388, "y": -27.933313, "freq": 12, "label": " cindy" }, "geometry": { "type": "Point", "coordinates": [ -42.426388, -27.933313 ] } },
{ "type": "Feature", "properties": { "id": 186, "x": -40.750381, "y": 30.31904, "freq": 16, "label": " gipple" }, "geometry": { "type": "Point", "coordinates": [ -40.750381, 30.31904 ] } },
{ "type": "Feature", "properties": { "id": 187, "x": 37.308315, "y": -2.534096, "freq": 629, "label": " lesbian" }, "geometry": { "type": "Point", "coordinates": [ 37.308315, -2.534096 ] } },
{ "type": "Feature", "properties": { "id": 188, "x": 10.202547, "y": -10.651118, "freq": 6, "label": " separatists" }, "geometry": { "type": "Point", "coordinates": [ 10.202547, -10.651118 ] } },
{ "type": "Feature", "properties": { "id": 189, "x": -56.663967, "y": -15.920178, "freq": 19, "label": " target" }, "geometry": { "type": "Point", "coordinates": [ -56.663967, -15.920178 ] } },
{ "type": "Feature", "properties": { "id": 190, "x": -6.73756, "y": 59.366943, "freq": 19, "label": " freeway" }, "geometry": { "type": "Point", "coordinates": [ -6.73756, 59.366943 ] } },
{ "type": "Feature", "properties": { "id": 191, "x": -8.981813, "y": 58.133087, "freq": 22, "label": " faygele" }, "geometry": { "type": "Point", "coordinates": [ -8.981813, 58.133087 ] } },
{ "type": "Feature", "properties": { "id": 192, "x": 13.490218, "y": 60.49229, "freq": 24, "label": " benmiriam" }, "geometry": { "type": "Point", "coordinates": [ 13.490218, 60.49229 ] } },
{ "type": "Feature", "properties": { "id": 193, "x": 58.993042, "y": 17.764435, "freq": 29, "label": " patrick" }, "geometry": { "type": "Point", "coordinates": [ 58.993042, 17.764435 ] } },
{ "type": "Feature", "properties": { "id": 194, "x": 3.570548, "y": 61.672253, "freq": 20, "label": " haggerty" }, "geometry": { "type": "Point", "coordinates": [ 3.570548, 61.672253 ] } },
{ "type": "Feature", "properties": { "id": 195, "x": 12.066472, "y": -60.992161, "freq": 5, "label": " flier" }, "geometry": { "type": "Point", "coordinates": [ 12.066472, -60.992161 ] } },
{ "type": "Feature", "properties": { "id": 196, "x": -49.235725, "y": 9.900519, "freq": 3, "label": " w" }, "geometry": { "type": "Point", "coordinates": [ -49.235725, 9.900519 ] } },
{ "type": "Feature", "properties": { "id": 197, "x": 19.368004, "y": 58.006203, "freq": 35, "label": " students" }, "geometry": { "type": "Point", "coordinates": [ 19.368004, 58.006203 ] } },
{ "type": "Feature", "properties": { "id": 198, "x": -53.45932, "y": 4.579933, "freq": 28, "label": " alliance" }, "geometry": { "type": "Point", "coordinates": [ -53.45932, 4.579933 ] } },
{ "type": "Feature", "properties": { "id": 199, "x": 58.868282, "y": -21.539236, "freq": 48, "label": " dancing" }, "geometry": { "type": "Point", "coordinates": [ 58.868282, -21.539236 ] } },
{ "type": "Feature", "properties": { "id": 200, "x": 51.342232, "y": 27.358738, "freq": 26, "label": " double" }, "geometry": { "type": "Point", "coordinates": [ 51.342232, 27.358738 ] } },
{ "type": "Feature", "properties": { "id": 201, "x": 5.678102, "y": 62.105873, "freq": 23, "label": " header" }, "geometry": { "type": "Point", "coordinates": [ 5.678102, 62.105873 ] } },
{ "type": "Feature", "properties": { "id": 202, "x": 64.60788, "y": 8.115955, "freq": 20, "label": " shelly" }, "geometry": { "type": "Point", "coordinates": [ 64.60788, 8.115955 ] } },
{ "type": "Feature", "properties": { "id": 203, "x": 38.244751, "y": 42.46357, "freq": 29, "label": " disco" }, "geometry": { "type": "Point", "coordinates": [ 38.244751, 42.46357 ] } },
{ "type": "Feature", "properties": { "id": 204, "x": 46.167801, "y": 33.070583, "freq": 31, "label": " union" }, "geometry": { "type": "Point", "coordinates": [ 46.167801, 33.070583 ] } },
{ "type": "Feature", "properties": { "id": 205, "x": 41.24015, "y": 6.26478, "freq": 237, "label": " sexual" }, "geometry": { "type": "Point", "coordinates": [ 41.24015, 6.26478 ] } },
{ "type": "Feature", "properties": { "id": 206, "x": 49.369781, "y": 31.197001, "freq": 48, "label": " minorities" }, "geometry": { "type": "Point", "coordinates": [ 49.369781, 31.197001 ] } },
{ "type": "Feature", "properties": { "id": 207, "x": -20.07229, "y": -1.666244, "freq": 10, "label": " brass" }, "geometry": { "type": "Point", "coordinates": [ -20.07229, -1.666244 ] } },
{ "type": "Feature", "properties": { "id": 208, "x": 63.322117, "y": -15.001606, "freq": 51, "label": " door" }, "geometry": { "type": "Point", "coordinates": [ 63.322117, -15.001606 ] } },
{ "type": "Feature", "properties": { "id": 209, "x": 65.333153, "y": -11.153082, "freq": 56, "label": " tielsch" }, "geometry": { "type": "Point", "coordinates": [ 65.333153, -11.153082 ] } },
{ "type": "Feature", "properties": { "id": 210, "x": 67.014023, "y": 5.580122, "freq": 61, "label": " charlie" }, "geometry": { "type": "Point", "coordinates": [ 67.014023, 5.580122 ] } },
{ "type": "Feature", "properties": { "id": 211, "x": 40.078876, "y": 0.854733, "freq": 148, "label": " brydon" }, "geometry": { "type": "Point", "coordinates": [ 40.078876, 0.854733 ] } },
{ "type": "Feature", "properties": { "id": 212, "x": 45.658699, "y": -26.621708, "freq": 80, "label": " campaign" }, "geometry": { "type": "Point", "coordinates": [ 45.658699, -26.621708 ] } },
{ "type": "Feature", "properties": { "id": 213, "x": 39.350044, "y": 41.271046, "freq": 29, "label": " victory" }, "geometry": { "type": "Point", "coordinates": [ 39.350044, 41.271046 ] } },
{ "type": "Feature", "properties": { "id": 214, "x": 18.868185, "y": -58.984428, "freq": 5, "label": " liberationist" }, "geometry": { "type": "Point", "coordinates": [ 18.868185, -58.984428 ] } },
{ "type": "Feature", "properties": { "id": 215, "x": 41.102074, "y": 6.179294, "freq": 205, "label": " march" }, "geometry": { "type": "Point", "coordinates": [ 41.102074, 6.179294 ] } },
{ "type": "Feature", "properties": { "id": 216, "x": 39.705463, "y": 2.223789, "freq": 124, "label": " pride" }, "geometry": { "type": "Point", "coordinates": [ 39.705463, 2.223789 ] } },
{ "type": "Feature", "properties": { "id": 217, "x": 46.789051, "y": 32.940975, "freq": 29, "label": " road" }, "geometry": { "type": "Point", "coordinates": [ 46.789051, 32.940975 ] } },
{ "type": "Feature", "properties": { "id": 218, "x": 4.265384, "y": 35.264656, "freq": 11, "label": " condom" }, "geometry": { "type": "Point", "coordinates": [ 4.265384, 35.264656 ] } },
{ "type": "Feature", "properties": { "id": 219, "x": -47.711109, "y": 14.468455, "freq": 15, "label": " campaigns" }, "geometry": { "type": "Point", "coordinates": [ -47.711109, 14.468455 ] } },
{ "type": "Feature", "properties": { "id": 220, "x": 37.868675, "y": -19.336386, "freq": 79, "label": " act" }, "geometry": { "type": "Point", "coordinates": [ 37.868675, -19.336386 ] } },
{ "type": "Feature", "properties": { "id": 221, "x": 19.326088, "y": 28.259966, "freq": 8, "label": " marchers" }, "geometry": { "type": "Point", "coordinates": [ 19.326088, 28.259966 ] } },
{ "type": "Feature", "properties": { "id": 222, "x": 55.372116, "y": -24.601288, "freq": 48, "label": " carol" }, "geometry": { "type": "Point", "coordinates": [ 55.372116, -24.601288 ] } },
{ "type": "Feature", "properties": { "id": 223, "x": -38.183514, "y": 32.432056, "freq": 14, "label": " sterling" }, "geometry": { "type": "Point", "coordinates": [ -38.183514, 32.432056 ] } },
{ "type": "Feature", "properties": { "id": 224, "x": 13.314923, "y": 2.30999, "freq": 8, "label": " betsy" }, "geometry": { "type": "Point", "coordinates": [ 13.314923, 2.30999 ] } },
{ "type": "Feature", "properties": { "id": 225, "x": -19.777473, "y": 0.224462, "freq": 11, "label": " lieberman" }, "geometry": { "type": "Point", "coordinates": [ -19.777473, 0.224462 ] } },
{ "type": "Feature", "properties": { "id": 226, "x": -4.859414, "y": 59.982002, "freq": 18, "label": " norm" }, "geometry": { "type": "Point", "coordinates": [ -4.859414, 59.982002 ] } },
{ "type": "Feature", "properties": { "id": 227, "x": -2.049981, "y": 30.99958, "freq": 7, "label": " rice" }, "geometry": { "type": "Point", "coordinates": [ -2.049981, 30.99958 ] } },
{ "type": "Feature", "properties": { "id": 228, "x": -9.215223, "y": -44.816692, "freq": 5, "label": " stamper" }, "geometry": { "type": "Point", "coordinates": [ -9.215223, -44.816692 ] } },
{ "type": "Feature", "properties": { "id": 229, "x": 39.46917, "y": -2.15695, "freq": 105, "label": " anderson" }, "geometry": { "type": "Point", "coordinates": [ 39.46917, -2.15695 ] } },
{ "type": "Feature", "properties": { "id": 230, "x": -18.581085, "y": 0.242402, "freq": 11, "label": " eric" }, "geometry": { "type": "Point", "coordinates": [ -18.581085, 0.242402 ] } },
{ "type": "Feature", "properties": { "id": 231, "x": 14.48261, "y": -2.383494, "freq": 5, "label": " ishino" }, "geometry": { "type": "Point", "coordinates": [ 14.48261, -2.383494 ] } },
{ "type": "Feature", "properties": { "id": 232, "x": 37.96032, "y": -19.693409, "freq": 85, "label": " started" }, "geometry": { "type": "Point", "coordinates": [ 37.96032, -19.693409 ] } },
{ "type": "Feature", "properties": { "id": 233, "x": 37.173782, "y": -16.232534, "freq": 121, "label": " work" }, "geometry": { "type": "Point", "coordinates": [ 37.173782, -16.232534 ] } },
{ "type": "Feature", "properties": { "id": 234, "x": -9.165352, "y": 58.812099, "freq": 35, "label": " fall" }, "geometry": { "type": "Point", "coordinates": [ -9.165352, 58.812099 ] } },
{ "type": "Feature", "properties": { "id": 235, "x": 40.795147, "y": -24.021666, "freq": 85, "label": " thought" }, "geometry": { "type": "Point", "coordinates": [ 40.795147, -24.021666 ] } },
{ "type": "Feature", "properties": { "id": 236, "x": 67.402252, "y": -9.058258, "freq": 77, "label": " project" }, "geometry": { "type": "Point", "coordinates": [ 67.402252, -9.058258 ] } },
{ "type": "Feature", "properties": { "id": 237, "x": 39.709167, "y": -1.665673, "freq": 1030, "label": " would" }, "geometry": { "type": "Point", "coordinates": [ 39.709167, -1.665673 ] } },
{ "type": "Feature", "properties": { "id": 238, "x": 14.920732, "y": 11.080821, "freq": 7, "label": " quick" }, "geometry": { "type": "Point", "coordinates": [ 14.920732, 11.080821 ] } },
{ "type": "Feature", "properties": { "id": 239, "x": -15.201595, "y": 13.934478, "freq": 15, "label": " maybe" }, "geometry": { "type": "Point", "coordinates": [ -15.201595, 13.934478 ] } },
{ "type": "Feature", "properties": { "id": 240, "x": 39.21986, "y": -2.420464, "freq": 138, "label": " year" }, "geometry": { "type": "Point", "coordinates": [ 39.21986, -2.420464 ] } },
{ "type": "Feature", "properties": { "id": 241, "x": 7.893078, "y": -20.768576, "freq": 5, "label": " narrative" }, "geometry": { "type": "Point", "coordinates": [ 7.893078, -20.768576 ] } },
{ "type": "Feature", "properties": { "id": 242, "x": -56.587814, "y": -3.198149, "freq": 15, "label": " passion" }, "geometry": { "type": "Point", "coordinates": [ -56.587814, -3.198149 ] } },
{ "type": "Feature", "properties": { "id": 243, "x": -18.447392, "y": 4.282595, "freq": 6, "label": " sto" }, "geometry": { "type": "Point", "coordinates": [ -18.447392, 4.282595 ] } },
{ "type": "Feature", "properties": { "id": 244, "x": -15.829253, "y": 4.020294, "freq": 6, "label": " ries" }, "geometry": { "type": "Point", "coordinates": [ -15.829253, 4.020294 ] } },
{ "type": "Feature", "properties": { "id": 245, "x": 59.911533, "y": 16.370539, "freq": 42, "label": " real" }, "geometry": { "type": "Point", "coordinates": [ 59.911533, 16.370539 ] } },
{ "type": "Feature", "properties": { "id": 246, "x": 64.880417, "y": -12.279999, "freq": 48, "label": " individuals" }, "geometry": { "type": "Point", "coordinates": [ 64.880417, -12.279999 ] } },
{ "type": "Feature", "properties": { "id": 247, "x": 20.274092, "y": 29.895895, "freq": 8, "label": " struggles" }, "geometry": { "type": "Point", "coordinates": [ 20.274092, 29.895895 ] } },
{ "type": "Feature", "properties": { "id": 248, "x": -10.610649, "y": -43.093784, "freq": 5, "label": " bigger" }, "geometry": { "type": "Point", "coordinates": [ -10.610649, -43.093784 ] } },
{ "type": "Feature", "properties": { "id": 249, "x": 54.147968, "y": 23.460255, "freq": 42, "label": " questions" }, "geometry": { "type": "Point", "coordinates": [ 54.147968, 23.460255 ] } },
{ "type": "Feature", "properties": { "id": 250, "x": 37.066925, "y": -9.255821, "freq": 163, "label": " case" }, "geometry": { "type": "Point", "coordinates": [ 37.066925, -9.255821 ] } },
{ "type": "Feature", "properties": { "id": 251, "x": 47.105049, "y": 32.504612, "freq": 42, "label": " question" }, "geometry": { "type": "Point", "coordinates": [ 47.105049, 32.504612 ] } },
{ "type": "Feature", "properties": { "id": 252, "x": 40.256023, "y": 0.830424, "freq": 223, "label": " group" }, "geometry": { "type": "Point", "coordinates": [ 40.256023, 0.830424 ] } },
{ "type": "Feature", "properties": { "id": 253, "x": 42.468281, "y": -25.229521, "freq": 79, "label": " citizens" }, "geometry": { "type": "Point", "coordinates": [ 42.468281, -25.229521 ] } },
{ "type": "Feature", "properties": { "id": 254, "x": 65.407043, "y": 6.666221, "freq": 47, "label": " decades" }, "geometry": { "type": "Point", "coordinates": [ 65.407043, 6.666221 ] } },
{ "type": "Feature", "properties": { "id": 255, "x": -17.800056, "y": 52.620106, "freq": 25, "label": " spent" }, "geometry": { "type": "Point", "coordinates": [ -17.800056, 52.620106 ] } },
{ "type": "Feature", "properties": { "id": 256, "x": -57.275978, "y": -7.836492, "freq": 15, "label": " closeted" }, "geometry": { "type": "Point", "coordinates": [ -57.275978, -7.836492 ] } },
{ "type": "Feature", "properties": { "id": 257, "x": 40.280525, "y": 1.236618, "freq": 236, "label": " public" }, "geometry": { "type": "Point", "coordinates": [ 40.280525, 1.236618 ] } },
{ "type": "Feature", "properties": { "id": 258, "x": 21.370941, "y": 56.790051, "freq": 26, "label": " voice" }, "geometry": { "type": "Point", "coordinates": [ 21.370941, 56.790051 ] } },
{ "type": "Feature", "properties": { "id": 259, "x": 63.468025, "y": 10.920656, "freq": 44, "label": " words" }, "geometry": { "type": "Point", "coordinates": [ 63.468025, 10.920656 ] } },
{ "type": "Feature", "properties": { "id": 260, "x": -2.592712, "y": -61.200653, "freq": 5, "label": " reaching" }, "geometry": { "type": "Point", "coordinates": [ -2.592712, -61.200653 ] } },
{ "type": "Feature", "properties": { "id": 261, "x": 66.079544, "y": 5.359679, "freq": 44, "label": " sense" }, "geometry": { "type": "Point", "coordinates": [ 66.079544, 5.359679 ] } },
{ "type": "Feature", "properties": { "id": 262, "x": 37.938583, "y": -6.315223, "freq": 118, "label": " home" }, "geometry": { "type": "Point", "coordinates": [ 37.938583, -6.315223 ] } },
{ "type": "Feature", "properties": { "id": 263, "x": -28.256216, "y": -15.964757, "freq": 16, "label": " figured" }, "geometry": { "type": "Point", "coordinates": [ -28.256216, -15.964757 ] } },
{ "type": "Feature", "properties": { "id": 264, "x": -15.012274, "y": 17.132877, "freq": 8, "label": " historians" }, "geometry": { "type": "Point", "coordinates": [ -15.012274, 17.132877 ] } },
{ "type": "Feature", "properties": { "id": 265, "x": 36.945576, "y": -13.442276, "freq": 106, "label": " already" }, "geometry": { "type": "Point", "coordinates": [ 36.945576, -13.442276 ] } },
{ "type": "Feature", "properties": { "id": 266, "x": 48.613541, "y": 30.896555, "freq": 41, "label": " done" }, "geometry": { "type": "Point", "coordinates": [ 48.613541, 30.896555 ] } },
{ "type": "Feature", "properties": { "id": 267, "x": 57.249454, "y": 20.895023, "freq": 43, "label": " jobs" }, "geometry": { "type": "Point", "coordinates": [ 57.249454, 20.895023 ] } },
{ "type": "Feature", "properties": { "id": 268, "x": 13.879416, "y": 59.932755, "freq": 26, "label": " view" }, "geometry": { "type": "Point", "coordinates": [ 13.879416, 59.932755 ] } },
{ "type": "Feature", "properties": { "id": 269, "x": 47.718826, "y": -26.745127, "freq": 77, "label": " important" }, "geometry": { "type": "Point", "coordinates": [ 47.718826, -26.745127 ] } },
{ "type": "Feature", "properties": { "id": 270, "x": -29.794689, "y": -15.651879, "freq": 16, "label": " events" }, "geometry": { "type": "Point", "coordinates": [ -29.794689, -15.651879 ] } },
{ "type": "Feature", "properties": { "id": 271, "x": -28.701536, "y": 43.782928, "freq": 21, "label": " available" }, "geometry": { "type": "Point", "coordinates": [ -28.701536, 43.782928 ] } },
{ "type": "Feature", "properties": { "id": 272, "x": -44.616867, "y": 23.892313, "freq": 17, "label": " easy" }, "geometry": { "type": "Point", "coordinates": [ -44.616867, 23.892313 ] } },
{ "type": "Feature", "properties": { "id": 273, "x": 37.052563, "y": -10.856711, "freq": 106, "label": " enough" }, "geometry": { "type": "Point", "coordinates": [ 37.052563, -10.856711 ] } },
{ "type": "Feature", "properties": { "id": 274, "x": -52.598789, "y": 6.519246, "freq": 17, "label": " plot" }, "geometry": { "type": "Point", "coordinates": [ -52.598789, 6.519246 ] } },
{ "type": "Feature", "properties": { "id": 275, "x": -28.61516, "y": 44.684368, "freq": 21, "label": " details" }, "geometry": { "type": "Point", "coordinates": [ -28.61516, 44.684368 ] } },
{ "type": "Feature", "properties": { "id": 276, "x": -31.194441, "y": 42.268822, "freq": 14, "label": " gender" }, "geometry": { "type": "Point", "coordinates": [ -31.194441, 42.268822 ] } },
{ "type": "Feature", "properties": { "id": 277, "x": 60.861473, "y": -19.172216, "freq": 50, "label": " living" }, "geometry": { "type": "Point", "coordinates": [ 60.861473, -19.172216 ] } },
{ "type": "Feature", "properties": { "id": 278, "x": -4.590348, "y": 33.441513, "freq": 7, "label": " embrace" }, "geometry": { "type": "Point", "coordinates": [ -4.590348, 33.441513 ] } },
{ "type": "Feature", "properties": { "id": 279, "x": -5.097755, "y": 35.034527, "freq": 6, "label": " inspired" }, "geometry": { "type": "Point", "coordinates": [ -5.097755, 35.034527 ] } },
{ "type": "Feature", "properties": { "id": 280, "x": -47.649525, "y": -26.468599, "freq": 11, "label": " natural" }, "geometry": { "type": "Point", "coordinates": [ -47.649525, -26.468599 ] } },
{ "type": "Feature", "properties": { "id": 281, "x": 37.397636, "y": -8.610743, "freq": 111, "label": " instead" }, "geometry": { "type": "Point", "coordinates": [ 37.397636, -8.610743 ] } },
{ "type": "Feature", "properties": { "id": 282, "x": -30.428013, "y": -19.062212, "freq": 14, "label": " research" }, "geometry": { "type": "Point", "coordinates": [ -30.428013, -19.062212 ] } },
{ "type": "Feature", "properties": { "id": 283, "x": 59.872681, "y": -20.301487, "freq": 68, "label": " took" }, "geometry": { "type": "Point", "coordinates": [ 59.872681, -20.301487 ] } },
{ "type": "Feature", "properties": { "id": 284, "x": 56.844036, "y": -23.328392, "freq": 72, "label": " almost" }, "geometry": { "type": "Point", "coordinates": [ 56.844036, -23.328392 ] } },
{ "type": "Feature", "properties": { "id": 285, "x": 45.771763, "y": -26.528671, "freq": 46, "label": " ten" }, "geometry": { "type": "Point", "coordinates": [ 45.771763, -26.528671 ] } },
{ "type": "Feature", "properties": { "id": 286, "x": 37.414036, "y": -7.121636, "freq": 274, "label": " years" }, "geometry": { "type": "Point", "coordinates": [ 37.414036, -7.121636 ] } },
{ "type": "Feature", "properties": { "id": 287, "x": 40.452305, "y": 39.809769, "freq": 31, "label": " learned" }, "geometry": { "type": "Point", "coordinates": [ 40.452305, 39.809769 ] } },
{ "type": "Feature", "properties": { "id": 288, "x": 40.0919, "y": 39.544643, "freq": 36, "label": " look" }, "geometry": { "type": "Point", "coordinates": [ 40.0919, 39.544643 ] } },
{ "type": "Feature", "properties": { "id": 289, "x": 18.246027, "y": 20.817238, "freq": 8, "label": " buried" }, "geometry": { "type": "Point", "coordinates": [ 18.246027, 20.817238 ] } },
{ "type": "Feature", "properties": { "id": 290, "x": 37.015015, "y": -18.894789, "freq": 124, "label": " county" }, "geometry": { "type": "Point", "coordinates": [ 37.015015, -18.894789 ] } },
{ "type": "Feature", "properties": { "id": 291, "x": 65.978607, "y": 4.899273, "freq": 42, "label": " federal" }, "geometry": { "type": "Point", "coordinates": [ 65.978607, 4.899273 ] } },
{ "type": "Feature", "properties": { "id": 292, "x": -22.284981, "y": 47.996246, "freq": 28, "label": " archives" }, "geometry": { "type": "Point", "coordinates": [ -22.284981, 47.996246 ] } },
{ "type": "Feature", "properties": { "id": 293, "x": 21.492472, "y": 56.379177, "freq": 31, "label": " read" }, "geometry": { "type": "Point", "coordinates": [ 21.492472, 56.379177 ] } },
{ "type": "Feature", "properties": { "id": 294, "x": 65.06662, "y": 4.559212, "freq": 53, "label": " records" }, "geometry": { "type": "Point", "coordinates": [ 65.06662, 4.559212 ] } },
{ "type": "Feature", "properties": { "id": 295, "x": -43.059639, "y": 24.087692, "freq": 16, "label": " lobotomies" }, "geometry": { "type": "Point", "coordinates": [ -43.059639, 24.087692 ] } },
{ "type": "Feature", "properties": { "id": 296, "x": 8.532873, "y": 36.778404, "freq": 8, "label": " performed" }, "geometry": { "type": "Point", "coordinates": [ 8.532873, 36.778404 ] } },
{ "type": "Feature", "properties": { "id": 297, "x": -57.561279, "y": -13.724837, "freq": 16, "label": " hospitals" }, "geometry": { "type": "Point", "coordinates": [ -57.561279, -13.724837 ] } },
{ "type": "Feature", "properties": { "id": 298, "x": 3.069317, "y": 61.594414, "freq": 19, "label": " key" }, "geometry": { "type": "Point", "coordinates": [ 3.069317, 61.594414 ] } },
{ "type": "Feature", "properties": { "id": 299, "x": -4.862245, "y": -32.696373, "freq": 5, "label": " disappeared" }, "geometry": { "type": "Point", "coordinates": [ -4.862245, -32.696373 ] } },
{ "type": "Feature", "properties": { "id": 300, "x": -26.195812, "y": -11.502869, "freq": 14, "label": " scene" }, "geometry": { "type": "Point", "coordinates": [ -26.195812, -11.502869 ] } },
{ "type": "Feature", "properties": { "id": 301, "x": 39.942112, "y": -23.119427, "freq": 71, "label": " sometimes" }, "geometry": { "type": "Point", "coordinates": [ 39.942112, -23.119427 ] } },
{ "type": "Feature", "properties": { "id": 302, "x": 37.625992, "y": -13.939911, "freq": 220, "label": " told" }, "geometry": { "type": "Point", "coordinates": [ 37.625992, -13.939911 ] } },
{ "type": "Feature", "properties": { "id": 303, "x": 57.731533, "y": -22.560383, "freq": 58, "label": " sent" }, "geometry": { "type": "Point", "coordinates": [ 57.731533, -22.560383 ] } },
{ "type": "Feature", "properties": { "id": 304, "x": 18.496708, "y": 22.635538, "freq": 7, "label": " video" }, "geometry": { "type": "Point", "coordinates": [ 18.496708, 22.635538 ] } },
{ "type": "Feature", "properties": { "id": 305, "x": 19.922556, "y": 28.289488, "freq": 6, "label": " cameras" }, "geometry": { "type": "Point", "coordinates": [ 19.922556, 28.289488 ] } },
{ "type": "Feature", "properties": { "id": 306, "x": 42.036568, "y": 38.058304, "freq": 26, "label": " record" }, "geometry": { "type": "Point", "coordinates": [ 42.036568, 38.058304 ] } },
{ "type": "Feature", "properties": { "id": 307, "x": -4.083602, "y": 60.521908, "freq": 26, "label": " interviews" }, "geometry": { "type": "Point", "coordinates": [ -4.083602, 60.521908 ] } },
{ "type": "Feature", "properties": { "id": 308, "x": 38.017231, "y": -5.669114, "freq": 123, "label": " old" }, "geometry": { "type": "Point", "coordinates": [ 38.017231, -5.669114 ] } },
{ "type": "Feature", "properties": { "id": 309, "x": 36.953186, "y": -12.139538, "freq": 108, "label": " young" }, "geometry": { "type": "Point", "coordinates": [ 36.953186, -12.139538 ] } },
{ "type": "Feature", "properties": { "id": 310, "x": 25.142569, "y": -56.597553, "freq": 7, "label": " brand" }, "geometry": { "type": "Point", "coordinates": [ 25.142569, -56.597553 ] } },
{ "type": "Feature", "properties": { "id": 311, "x": 0.895278, "y": 61.112122, "freq": 25, "label": " queer" }, "geometry": { "type": "Point", "coordinates": [ 0.895278, 61.112122 ] } },
{ "type": "Feature", "properties": { "id": 312, "x": 64.932495, "y": -12.142335, "freq": 50, "label": " side" }, "geometry": { "type": "Point", "coordinates": [ 64.932495, -12.142335 ] } },
{ "type": "Feature", "properties": { "id": 313, "x": 40.969223, "y": 5.404475, "freq": 179, "label": " northwest" }, "geometry": { "type": "Point", "coordinates": [ 40.969223, 5.404475 ] } },
{ "type": "Feature", "properties": { "id": 314, "x": -23.471439, "y": -7.712483, "freq": 15, "label": " happy" }, "geometry": { "type": "Point", "coordinates": [ -23.471439, -7.712483 ] } },
{ "type": "Feature", "properties": { "id": 315, "x": 65.522476, "y": -10.564667, "freq": 41, "label": " past" }, "geometry": { "type": "Point", "coordinates": [ 65.522476, -10.564667 ] } },
{ "type": "Feature", "properties": { "id": 316, "x": 58.032467, "y": 19.0795, "freq": 37, "label": " decade" }, "geometry": { "type": "Point", "coordinates": [ 58.032467, 19.0795 ] } },
{ "type": "Feature", "properties": { "id": 317, "x": 39.388397, "y": -2.179742, "freq": 113, "label": " since" }, "geometry": { "type": "Point", "coordinates": [ 39.388397, -2.179742 ] } },
{ "type": "Feature", "properties": { "id": 318, "x": 37.033958, "y": -9.726903, "freq": 85, "label": " book" }, "geometry": { "type": "Point", "coordinates": [ 37.033958, -9.726903 ] } },
{ "type": "Feature", "properties": { "id": 319, "x": 40.882977, "y": 4.203822, "freq": 175, "label": " well" }, "geometry": { "type": "Point", "coordinates": [ 40.882977, 4.203822 ] } },
{ "type": "Feature", "properties": { "id": 320, "x": -45.394722, "y": 20.255714, "freq": 28, "label": " received" }, "geometry": { "type": "Point", "coordinates": [ -45.394722, 20.255714 ] } },
{ "type": "Feature", "properties": { "id": 321, "x": -35.225254, "y": -23.072496, "freq": 11, "label": " collected" }, "geometry": { "type": "Point", "coordinates": [ -35.225254, -23.072496 ] } },
{ "type": "Feature", "properties": { "id": 322, "x": 41.508045, "y": -24.599443, "freq": 82, "label": " several" }, "geometry": { "type": "Point", "coordinates": [ 41.508045, -24.599443 ] } },
{ "type": "Feature", "properties": { "id": 323, "x": -11.211587, "y": -35.746571, "freq": 6, "label": " awards" }, "geometry": { "type": "Point", "coordinates": [ -11.211587, -35.746571 ] } },
{ "type": "Feature", "properties": { "id": 324, "x": 38.28162, "y": -5.955311, "freq": 134, "label": " among" }, "geometry": { "type": "Point", "coordinates": [ 38.28162, -5.955311 ] } },
{ "type": "Feature", "properties": { "id": 325, "x": -45.50647, "y": 21.818584, "freq": 14, "label": " award" }, "geometry": { "type": "Point", "coordinates": [ -45.50647, 21.818584 ] } },
{ "type": "Feature", "properties": { "id": 326, "x": 40.433582, "y": 1.800072, "freq": 192, "label": " called" }, "geometry": { "type": "Point", "coordinates": [ 40.433582, 1.800072 ] } },
{ "type": "Feature", "properties": { "id": 327, "x": -47.436909, "y": -24.277578, "freq": 12, "label": " importance" }, "geometry": { "type": "Point", "coordinates": [ -47.436909, -24.277578 ] } },
{ "type": "Feature", "properties": { "id": 328, "x": -22.770849, "y": -8.693955, "freq": 11, "label": " subject" }, "geometry": { "type": "Point", "coordinates": [ -22.770849, -8.693955 ] } },
{ "type": "Feature", "properties": { "id": 329, "x": 40.927853, "y": 3.655056, "freq": 468, "label": " also" }, "geometry": { "type": "Point", "coordinates": [ 40.927853, 3.655056 ] } },
{ "type": "Feature", "properties": { "id": 330, "x": 38.095535, "y": -20.116945, "freq": 90, "label": " good" }, "geometry": { "type": "Point", "coordinates": [ 38.095535, -20.116945 ] } },
{ "type": "Feature", "properties": { "id": 331, "x": -32.982918, "y": -22.585981, "freq": 10, "label": " share" }, "geometry": { "type": "Point", "coordinates": [ -32.982918, -22.585981 ] } },
{ "type": "Feature", "properties": { "id": 332, "x": -44.613712, "y": -26.805202, "freq": 13, "label": " critical" }, "geometry": { "type": "Point", "coordinates": [ -44.613712, -26.805202 ] } },
{ "type": "Feature", "properties": { "id": 333, "x": 3.632248, "y": -21.294909, "freq": 5, "label": " praise" }, "geometry": { "type": "Point", "coordinates": [ 3.632248, -21.294909 ] } },
{ "type": "Feature", "properties": { "id": 334, "x": -11.98232, "y": 24.660275, "freq": 8, "label": " academic" }, "geometry": { "type": "Point", "coordinates": [ -11.98232, 24.660275 ] } },
{ "type": "Feature", "properties": { "id": 335, "x": -2.652818, "y": -31.904886, "freq": 8, "label": " admit" }, "geometry": { "type": "Point", "coordinates": [ -2.652818, -31.904886 ] } },
{ "type": "Feature", "properties": { "id": 336, "x": 45.736389, "y": -26.594292, "freq": 83, "label": " though" }, "geometry": { "type": "Point", "coordinates": [ 45.736389, -26.594292 ] } },
{ "type": "Feature", "properties": { "id": 337, "x": 38.802437, "y": 41.574806, "freq": 30, "label": " join" }, "geometry": { "type": "Point", "coordinates": [ 38.802437, 41.574806 ] } },
{ "type": "Feature", "properties": { "id": 338, "x": 58.791645, "y": -21.643341, "freq": 72, "label": " kind" }, "geometry": { "type": "Point", "coordinates": [ 58.791645, -21.643341 ] } },
{ "type": "Feature", "properties": { "id": 339, "x": 40.779888, "y": 2.74977, "freq": 493, "label": " could" }, "geometry": { "type": "Point", "coordinates": [ 40.779888, 2.74977 ] } },
{ "type": "Feature", "properties": { "id": 340, "x": -48.797848, "y": -25.662428, "freq": 17, "label": " easily" }, "geometry": { "type": "Point", "coordinates": [ -48.797848, -25.662428 ] } },
{ "type": "Feature", "properties": { "id": 341, "x": 13.640929, "y": 3.284558, "freq": 7, "label": " carry" }, "geometry": { "type": "Point", "coordinates": [ 13.640929, 3.284558 ] } },
{ "type": "Feature", "properties": { "id": 342, "x": -48.409782, "y": -24.346399, "freq": 14, "label": " feeling" }, "geometry": { "type": "Point", "coordinates": [ -48.409782, -24.346399 ] } },
{ "type": "Feature", "properties": { "id": 343, "x": -30.671261, "y": 42.851532, "freq": 21, "label": " guilty" }, "geometry": { "type": "Point", "coordinates": [ -30.671261, 42.851532 ] } },
{ "type": "Feature", "properties": { "id": 344, "x": 39.04126, "y": -21.915243, "freq": 93, "label": " decided" }, "geometry": { "type": "Point", "coordinates": [ 39.04126, -21.915243 ] } },
{ "type": "Feature", "properties": { "id": 345, "x": 63.718815, "y": -15.268359, "freq": 67, "label": " issue" }, "geometry": { "type": "Point", "coordinates": [ 63.718815, -15.268359 ] } },
{ "type": "Feature", "properties": { "id": 346, "x": 64.948288, "y": 7.737696, "freq": 48, "label": " tion" }, "geometry": { "type": "Point", "coordinates": [ 64.948288, 7.737696 ] } },
{ "type": "Feature", "properties": { "id": 347, "x": 19.750631, "y": 57.150154, "freq": 32, "label": " original" }, "geometry": { "type": "Point", "coordinates": [ 19.750631, 57.150154 ] } },
{ "type": "Feature", "properties": { "id": 348, "x": -37.85545, "y": -23.763582, "freq": 15, "label": " bring" }, "geometry": { "type": "Point", "coordinates": [ -37.85545, -23.763582 ] } },
{ "type": "Feature", "properties": { "id": 349, "x": 46.228401, "y": -26.416609, "freq": 25, "label": " twenty" }, "geometry": { "type": "Point", "coordinates": [ 46.228401, -26.416609 ] } },
{ "type": "Feature", "properties": { "id": 350, "x": 48.462692, "y": -27.078938, "freq": 50, "label": " century" }, "geometry": { "type": "Point", "coordinates": [ 48.462692, -27.078938 ] } },
{ "type": "Feature", "properties": { "id": 351, "x": 57.354774, "y": 19.350092, "freq": 31, "label": " whose" }, "geometry": { "type": "Point", "coordinates": [ 57.354774, 19.350092 ] } },
{ "type": "Feature", "properties": { "id": 352, "x": 56.506382, "y": 23.302656, "freq": 50, "label": " libraries" }, "geometry": { "type": "Point", "coordinates": [ 56.506382, 23.302656 ] } },
{ "type": "Feature", "properties": { "id": 353, "x": -2.620872, "y": -62.948273, "freq": 5, "label": " smart" }, "geometry": { "type": "Point", "coordinates": [ -2.620872, -62.948273 ] } },
{ "type": "Feature", "properties": { "id": 354, "x": 14.00636, "y": 59.845798, "freq": 25, "label": " phone" }, "geometry": { "type": "Point", "coordinates": [ 14.00636, 59.845798 ] } },
{ "type": "Feature", "properties": { "id": 355, "x": -25.497791, "y": 47.311432, "freq": 18, "label": " intended" }, "geometry": { "type": "Point", "coordinates": [ -25.497791, 47.311432 ] } },
{ "type": "Feature", "properties": { "id": 356, "x": 67.079033, "y": 0.965411, "freq": 41, "label": " great" }, "geometry": { "type": "Point", "coordinates": [ 67.079033, 0.965411 ] } },
{ "type": "Feature", "properties": { "id": 357, "x": 22.510595, "y": 21.158176, "freq": 8, "label": " detail" }, "geometry": { "type": "Point", "coordinates": [ 22.510595, 21.158176 ] } },
{ "type": "Feature", "properties": { "id": 358, "x": 67.084869, "y": -4.151556, "freq": 59, "label": " happened" }, "geometry": { "type": "Point", "coordinates": [ 67.084869, -4.151556 ] } },
{ "type": "Feature", "properties": { "id": 359, "x": 18.544947, "y": 18.231926, "freq": 8, "label": " fill" }, "geometry": { "type": "Point", "coordinates": [ 18.544947, 18.231926 ] } },
{ "type": "Feature", "properties": { "id": 360, "x": 39.314968, "y": -2.428238, "freq": 210, "label": " still" }, "geometry": { "type": "Point", "coordinates": [ 39.314968, -2.428238 ] } },
{ "type": "Feature", "properties": { "id": 361, "x": -30.350134, "y": 42.559341, "freq": 19, "label": " needs" }, "geometry": { "type": "Point", "coordinates": [ -30.350134, 42.559341 ] } },
{ "type": "Feature", "properties": { "id": 362, "x": 14.20973, "y": -61.599518, "freq": 6, "label": " rich" }, "geometry": { "type": "Point", "coordinates": [ 14.20973, -61.599518 ] } },
{ "type": "Feature", "properties": { "id": 363, "x": 37.204376, "y": -10.112125, "freq": 137, "label": " example" }, "geometry": { "type": "Point", "coordinates": [ 37.204376, -10.112125 ] } },
{ "type": "Feature", "properties": { "id": 364, "x": 67.220772, "y": -1.190287, "freq": 48, "label": " better" }, "geometry": { "type": "Point", "coordinates": [ 67.220772, -1.190287 ] } },
{ "type": "Feature", "properties": { "id": 365, "x": 36.94614, "y": -12.977199, "freq": 99, "label": " left" }, "geometry": { "type": "Point", "coordinates": [ 36.94614, -12.977199 ] } },
{ "type": "Feature", "properties": { "id": 366, "x": -14.891591, "y": 9.59524, "freq": 11, "label": " entirely" }, "geometry": { "type": "Point", "coordinates": [ -14.891591, 9.59524 ] } },
{ "type": "Feature", "properties": { "id": 367, "x": 4.110877, "y": 61.568359, "freq": 26, "label": " books" }, "geometry": { "type": "Point", "coordinates": [ 4.110877, 61.568359 ] } },
{ "type": "Feature", "properties": { "id": 368, "x": -4.609365, "y": 60.98011, "freq": 23, "label": " types" }, "geometry": { "type": "Point", "coordinates": [ -4.609365, 60.98011 ] } },
{ "type": "Feature", "properties": { "id": 369, "x": 65.526115, "y": 6.225658, "freq": 50, "label": " media" }, "geometry": { "type": "Point", "coordinates": [ 65.526115, 6.225658 ] } },
{ "type": "Feature", "properties": { "id": 370, "x": 65.966278, "y": 5.279821, "freq": 39, "label": " however" }, "geometry": { "type": "Point", "coordinates": [ 65.966278, 5.279821 ] } },
{ "type": "Feature", "properties": { "id": 371, "x": 55.26442, "y": -24.484806, "freq": 77, "label": " want" }, "geometry": { "type": "Point", "coordinates": [ 55.26442, -24.484806 ] } },
{ "type": "Feature", "properties": { "id": 372, "x": 13.369633, "y": 60.313118, "freq": 31, "label": " ways" }, "geometry": { "type": "Point", "coordinates": [ 13.369633, 60.313118 ] } },
{ "type": "Feature", "properties": { "id": 373, "x": -17.445532, "y": 6.48254, "freq": 9, "label": " saga" }, "geometry": { "type": "Point", "coordinates": [ -17.445532, 6.48254 ] } },
{ "type": "Feature", "properties": { "id": 374, "x": 3.677052, "y": -28.137144, "freq": 5, "label": " unfolded" }, "geometry": { "type": "Point", "coordinates": [ 3.677052, -28.137144 ] } },
{ "type": "Feature", "properties": { "id": 375, "x": -32.271637, "y": 40.035172, "freq": 25, "label": " closed" }, "geometry": { "type": "Point", "coordinates": [ -32.271637, 40.035172 ] } },
{ "type": "Feature", "properties": { "id": 376, "x": 19.578438, "y": 57.283688, "freq": 6, "label": " mid" }, "geometry": { "type": "Point", "coordinates": [ 19.578438, 57.283688 ] } },
{ "type": "Feature", "properties": { "id": 377, "x": 63.413486, "y": 10.950318, "freq": 45, "label": " november" }, "geometry": { "type": "Point", "coordinates": [ 63.413486, 10.950318 ] } },
{ "type": "Feature", "properties": { "id": 378, "x": 11.422273, "y": -15.089352, "freq": 8, "label": " fate" }, "geometry": { "type": "Point", "coordinates": [ 11.422273, -15.089352 ] } },
{ "type": "Feature", "properties": { "id": 379, "x": 49.172085, "y": 30.174944, "freq": 29, "label": " referendum" }, "geometry": { "type": "Point", "coordinates": [ 49.172085, 30.174944 ] } },
{ "type": "Feature", "properties": { "id": 380, "x": 44.140362, "y": -25.978941, "freq": 91, "label": " vote" }, "geometry": { "type": "Point", "coordinates": [ 44.140362, -25.978941 ] } },
{ "type": "Feature", "properties": { "id": 381, "x": -14.129715, "y": 15.218291, "freq": 13, "label": " decide" }, "geometry": { "type": "Point", "coordinates": [ -14.129715, 15.218291 ] } },
{ "type": "Feature", "properties": { "id": 382, "x": 36.789978, "y": -11.313357, "freq": 102, "label": " whether" }, "geometry": { "type": "Point", "coordinates": [ 36.789978, -11.313357 ] } },
{ "type": "Feature", "properties": { "id": 383, "x": -58.974274, "y": -3.924605, "freq": 16, "label": " adults" }, "geometry": { "type": "Point", "coordinates": [ -58.974274, -3.924605 ] } },
{ "type": "Feature", "properties": { "id": 384, "x": 16.537308, "y": 58.532177, "freq": 29, "label": " equal" }, "geometry": { "type": "Point", "coordinates": [ 16.537308, 58.532177 ] } },
{ "type": "Feature", "properties": { "id": 385, "x": 37.909851, "y": -22.929235, "freq": 161, "label": " civil" }, "geometry": { "type": "Point", "coordinates": [ 37.909851, -22.929235 ] } },
{ "type": "Feature", "properties": { "id": 386, "x": 37.022018, "y": -10.911987, "freq": 94, "label": " right" }, "geometry": { "type": "Point", "coordinates": [ 37.022018, -10.911987 ] } },
{ "type": "Feature", "properties": { "id": 387, "x": -25.3251, "y": -7.347027, "freq": 14, "label": " marry" }, "geometry": { "type": "Point", "coordinates": [ -25.3251, -7.347027 ] } },
{ "type": "Feature", "properties": { "id": 388, "x": 48.763203, "y": 30.401299, "freq": 29, "label": " per" }, "geometry": { "type": "Point", "coordinates": [ 48.763203, 30.401299 ] } },
{ "type": "Feature", "properties": { "id": 389, "x": -0.080077, "y": 61.384277, "freq": 20, "label": " son" }, "geometry": { "type": "Point", "coordinates": [ -0.080077, 61.384277 ] } },
{ "type": "Feature", "properties": { "id": 390, "x": 66.644615, "y": -6.348568, "freq": 52, "label": " love" }, "geometry": { "type": "Point", "coordinates": [ 66.644615, -6.348568 ] } },
{ "type": "Feature", "properties": { "id": 391, "x": 65.496468, "y": -7.283154, "freq": 53, "label": " legislature" }, "geometry": { "type": "Point", "coordinates": [ 65.496468, -7.283154 ] } },
{ "type": "Feature", "properties": { "id": 392, "x": -58.792595, "y": -6.698613, "freq": 13, "label": " approved" }, "geometry": { "type": "Point", "coordinates": [ -58.792595, -6.698613 ] } },
{ "type": "Feature", "properties": { "id": 393, "x": 58.34528, "y": 18.322891, "freq": 43, "label": " idea" }, "geometry": { "type": "Point", "coordinates": [ 58.34528, 18.322891 ] } },
{ "type": "Feature", "properties": { "id": 394, "x": 48.574608, "y": 30.734318, "freq": 33, "label": " voters" }, "geometry": { "type": "Point", "coordinates": [ 48.574608, 30.734318 ] } },
{ "type": "Feature", "properties": { "id": 395, "x": -51.140797, "y": -24.867567, "freq": 14, "label": " chance" }, "geometry": { "type": "Point", "coordinates": [ -51.140797, -24.867567 ] } },
{ "type": "Feature", "properties": { "id": 396, "x": 42.415283, "y": -25.191807, "freq": 82, "label": " although" }, "geometry": { "type": "Point", "coordinates": [ 42.415283, -25.191807 ] } },
{ "type": "Feature", "properties": { "id": 397, "x": 53.724354, "y": -25.355846, "freq": 43, "label": " six" }, "geometry": { "type": "Point", "coordinates": [ 53.724354, -25.355846 ] } },
{ "type": "Feature", "properties": { "id": 398, "x": 48.955776, "y": -28.067911, "freq": 93, "label": " district" }, "geometry": { "type": "Point", "coordinates": [ 48.955776, -28.067911 ] } },
{ "type": "Feature", "properties": { "id": 399, "x": -3.02983, "y": 37.123684, "freq": 10, "label": " columbia" }, "geometry": { "type": "Point", "coordinates": [ -3.02983, 37.123684 ] } },
{ "type": "Feature", "properties": { "id": 400, "x": 41.177849, "y": 5.685329, "freq": 245, "label": " sex" }, "geometry": { "type": "Point", "coordinates": [ 41.177849, 5.685329 ] } },
{ "type": "Feature", "properties": { "id": 401, "x": 38.141052, "y": -5.390593, "freq": 112, "label": " marriage" }, "geometry": { "type": "Point", "coordinates": [ 38.141052, -5.390593 ] } },
{ "type": "Feature", "properties": { "id": 402, "x": 4.320148, "y": 60.972717, "freq": 20, "label": " courts" }, "geometry": { "type": "Point", "coordinates": [ 4.320148, 60.972717 ] } },
{ "type": "Feature", "properties": { "id": 403, "x": 39.366997, "y": -2.323889, "freq": 155, "label": " made" }, "geometry": { "type": "Point", "coordinates": [ 39.366997, -2.323889 ] } },
{ "type": "Feature", "properties": { "id": 404, "x": -59.227154, "y": -9.816291, "freq": 12, "label": " decisions" }, "geometry": { "type": "Point", "coordinates": [ -59.227154, -9.816291 ] } },
{ "type": "Feature", "properties": { "id": 405, "x": 38.841465, "y": -3.064759, "freq": 286, "label": " time" }, "geometry": { "type": "Point", "coordinates": [ 38.841465, -3.064759 ] } },
{ "type": "Feature", "properties": { "id": 406, "x": -36.161415, "y": 35.113079, "freq": 17, "label": " direct" }, "geometry": { "type": "Point", "coordinates": [ -36.161415, 35.113079 ] } },
{ "type": "Feature", "properties": { "id": 407, "x": -59.468781, "y": -9.570441, "freq": 13, "label": " rejected" }, "geometry": { "type": "Point", "coordinates": [ -59.468781, -9.570441 ] } },
{ "type": "Feature", "properties": { "id": 408, "x": -23.089006, "y": 49.593109, "freq": 20, "label": " marriages" }, "geometry": { "type": "Point", "coordinates": [ -23.089006, 49.593109 ] } },
{ "type": "Feature", "properties": { "id": 409, "x": -42.368114, "y": -24.712311, "freq": 14, "label": " respect" }, "geometry": { "type": "Point", "coordinates": [ -42.368114, -24.712311 ] } },
{ "type": "Feature", "properties": { "id": 410, "x": -56.877342, "y": -3.832222, "freq": 18, "label": " situation" }, "geometry": { "type": "Point", "coordinates": [ -56.877342, -3.832222 ] } },
{ "type": "Feature", "properties": { "id": 411, "x": 37.007927, "y": -10.988035, "freq": 110, "label": " end" }, "geometry": { "type": "Point", "coordinates": [ 37.007927, -10.988035 ] } },
{ "type": "Feature", "properties": { "id": 412, "x": -54.933537, "y": -20.599979, "freq": 11, "label": " sim" }, "geometry": { "type": "Point", "coordinates": [ -54.933537, -20.599979 ] } },
{ "type": "Feature", "properties": { "id": 413, "x": -8.795656, "y": 28.158466, "freq": 10, "label": " encountered" }, "geometry": { "type": "Point", "coordinates": [ -8.795656, 28.158466 ] } },
{ "type": "Feature", "properties": { "id": 414, "x": 55.77853, "y": -24.028933, "freq": 72, "label": " earlier" }, "geometry": { "type": "Point", "coordinates": [ 55.77853, -24.028933 ] } },
{ "type": "Feature", "properties": { "id": 415, "x": 9.261534, "y": -20.612986, "freq": 7, "label": " outcome" }, "geometry": { "type": "Point", "coordinates": [ 9.261534, -20.612986 ] } },
{ "type": "Feature", "properties": { "id": 416, "x": 41.274441, "y": -24.379585, "freq": 8, "label": " anti" }, "geometry": { "type": "Point", "coordinates": [ 41.274441, -24.379585 ] } },
{ "type": "Feature", "properties": { "id": 417, "x": 37.553314, "y": -7.98973, "freq": 135, "label": " council" }, "geometry": { "type": "Point", "coordinates": [ 37.553314, -7.98973 ] } },
{ "type": "Feature", "properties": { "id": 418, "x": 60.821949, "y": -19.277575, "freq": 61, "label": " decision" }, "geometry": { "type": "Point", "coordinates": [ 60.821949, -19.277575 ] } },
{ "type": "Feature", "properties": { "id": 419, "x": -6.839972, "y": 28.867788, "freq": 12, "label": " add" }, "geometry": { "type": "Point", "coordinates": [ -6.839972, 28.867788 ] } },
{ "type": "Feature", "properties": { "id": 420, "x": 6.604629, "y": 60.077583, "freq": 43, "label": " orientation" }, "geometry": { "type": "Point", "coordinates": [ 6.604629, 60.077583 ] } },
{ "type": "Feature", "properties": { "id": 421, "x": -9.556957, "y": 30.096272, "freq": 12, "label": " discriminated" }, "geometry": { "type": "Point", "coordinates": [ -9.556957, 30.096272 ] } },
{ "type": "Feature", "properties": { "id": 422, "x": 59.017853, "y": -21.374445, "freq": 63, "label": " housing" }, "geometry": { "type": "Point", "coordinates": [ 59.017853, -21.374445 ] } },
{ "type": "Feature", "properties": { "id": 423, "x": -47.92284, "y": 13.9042, "freq": 18, "label": " employment" }, "geometry": { "type": "Point", "coordinates": [ -47.92284, 13.9042 ] } },
{ "type": "Feature", "properties": { "id": 424, "x": 64.618317, "y": -12.556571, "freq": 51, "label": " across" }, "geometry": { "type": "Point", "coordinates": [ 64.618317, -12.556571 ] } },
{ "type": "Feature", "properties": { "id": 425, "x": 52.615292, "y": 25.768436, "freq": 29, "label": " country" }, "geometry": { "type": "Point", "coordinates": [ 52.615292, 25.768436 ] } },
{ "type": "Feature", "properties": { "id": 426, "x": 56.660225, "y": 20.626982, "freq": 37, "label": " opponents" }, "geometry": { "type": "Point", "coordinates": [ 56.660225, 20.626982 ] } },
{ "type": "Feature", "properties": { "id": 427, "x": -6.505888, "y": 25.707495, "freq": 14, "label": " protections" }, "geometry": { "type": "Point", "coordinates": [ -6.505888, 25.707495 ] } },
{ "type": "Feature", "properties": { "id": 428, "x": 39.268394, "y": -5.601506, "freq": 0, "label": " lesbians" }, "geometry": { "type": "Point", "coordinates": [ 39.268394, -5.601506 ] } },
{ "type": "Feature", "properties": { "id": 429, "x": -49.207844, "y": -26.896379, "freq": 12, "label": " successfully" }, "geometry": { "type": "Point", "coordinates": [ -49.207844, -26.896379 ] } },
{ "type": "Feature", "properties": { "id": 430, "x": 55.119629, "y": -24.576349, "freq": 70, "label": " every" }, "geometry": { "type": "Point", "coordinates": [ 55.119629, -24.576349 ] } },
{ "type": "Feature", "properties": { "id": 431, "x": -19.138573, "y": 52.327801, "freq": 25, "label": " similar" }, "geometry": { "type": "Point", "coordinates": [ -19.138573, 52.327801 ] } },
{ "type": "Feature", "properties": { "id": 432, "x": 42.673481, "y": -25.450235, "freq": 117, "label": " story" }, "geometry": { "type": "Point", "coordinates": [ 42.673481, -25.450235 ] } },
{ "type": "Feature", "properties": { "id": 433, "x": 40.351181, "y": 1.150221, "freq": 183, "label": " became" }, "geometry": { "type": "Point", "coordinates": [ 40.351181, 1.150221 ] } },
{ "type": "Feature", "properties": { "id": 434, "x": -2.761068, "y": 60.70002, "freq": 27, "label": " cities" }, "geometry": { "type": "Point", "coordinates": [ -2.761068, 60.70002 ] } },
{ "type": "Feature", "properties": { "id": 435, "x": -57.220505, "y": -18.585131, "freq": 15, "label": " retain" }, "geometry": { "type": "Point", "coordinates": [ -57.220505, -18.585131 ] } },
{ "type": "Feature", "properties": { "id": 436, "x": -18.490133, "y": 2.073485, "freq": 7, "label": " breaking" }, "geometry": { "type": "Point", "coordinates": [ -18.490133, 2.073485 ] } },
{ "type": "Feature", "properties": { "id": 437, "x": -26.372066, "y": 47.504093, "freq": 18, "label": " opposition" }, "geometry": { "type": "Point", "coordinates": [ -26.372066, 47.504093 ] } },
{ "type": "Feature", "properties": { "id": 438, "x": 57.552818, "y": -22.732615, "freq": 71, "label": " chapter" }, "geometry": { "type": "Point", "coordinates": [ 57.552818, -22.732615 ] } },
{ "type": "Feature", "properties": { "id": 439, "x": 65.661377, "y": 6.266997, "freq": 43, "label": " majority" }, "geometry": { "type": "Point", "coordinates": [ 65.661377, 6.266997 ] } },
{ "type": "Feature", "properties": { "id": 440, "x": 1.272239, "y": 61.246582, "freq": 21, "label": " upon" }, "geometry": { "type": "Point", "coordinates": [ 1.272239, 61.246582 ] } },
{ "type": "Feature", "properties": { "id": 441, "x": 58.103626, "y": 18.122377, "freq": 43, "label": " minority" }, "geometry": { "type": "Point", "coordinates": [ 58.103626, 18.122377 ] } },
{ "type": "Feature", "properties": { "id": 442, "x": 66.997047, "y": -4.742905, "freq": 53, "label": " course" }, "geometry": { "type": "Point", "coordinates": [ 66.997047, -4.742905 ] } },
{ "type": "Feature", "properties": { "id": 443, "x": 59.538624, "y": -20.838625, "freq": 60, "label": " especially" }, "geometry": { "type": "Point", "coordinates": [ 59.538624, -20.838625 ] } },
{ "type": "Feature", "properties": { "id": 444, "x": -51.360558, "y": -23.597464, "freq": 12, "label": " deeply" }, "geometry": { "type": "Point", "coordinates": [ -51.360558, -23.597464 ] } },
{ "type": "Feature", "properties": { "id": 445, "x": -43.922134, "y": -24.229013, "freq": 10, "label": " trained" }, "geometry": { "type": "Point", "coordinates": [ -43.922134, -24.229013 ] } },
{ "type": "Feature", "properties": { "id": 446, "x": 66.442848, "y": -7.277211, "freq": 59, "label": " particular" }, "geometry": { "type": "Point", "coordinates": [ 66.442848, -7.277211 ] } },
{ "type": "Feature", "properties": { "id": 447, "x": 36.655571, "y": 41.580147, "freq": 34, "label": " historical" }, "geometry": { "type": "Point", "coordinates": [ 36.655571, 41.580147 ] } },
{ "type": "Feature", "properties": { "id": 448, "x": -15.546676, "y": 54.522659, "freq": 15, "label": " cultural" }, "geometry": { "type": "Point", "coordinates": [ -15.546676, 54.522659 ] } },
{ "type": "Feature", "properties": { "id": 449, "x": 41.14106, "y": 5.794791, "freq": 409, "label": " see" }, "geometry": { "type": "Point", "coordinates": [ 41.14106, 5.794791 ] } },
{ "type": "Feature", "properties": { "id": 450, "x": 39.161987, "y": -2.711221, "freq": 186, "label": " way" }, "geometry": { "type": "Point", "coordinates": [ 39.161987, -2.711221 ] } },
{ "type": "Feature", "properties": { "id": 451, "x": -29.442936, "y": -14.869828, "freq": 11, "label": " possibility" }, "geometry": { "type": "Point", "coordinates": [ -29.442936, -14.869828 ] } },
{ "type": "Feature", "properties": { "id": 452, "x": 60.438507, "y": -19.821461, "freq": 49, "label": " meant" }, "geometry": { "type": "Point", "coordinates": [ 60.438507, -19.821461 ] } },
{ "type": "Feature", "properties": { "id": 453, "x": 57.729198, "y": 19.404268, "freq": 34, "label": " raised" }, "geometry": { "type": "Point", "coordinates": [ 57.729198, 19.404268 ] } },
{ "type": "Feature", "properties": { "id": 454, "x": 65.995216, "y": -9.45081, "freq": 61, "label": " days" }, "geometry": { "type": "Point", "coordinates": [ 65.995216, -9.45081 ] } },
{ "type": "Feature", "properties": { "id": 455, "x": -16.21402, "y": 54.842228, "freq": 27, "label": " brought" }, "geometry": { "type": "Point", "coordinates": [ -16.21402, 54.842228 ] } },
{ "type": "Feature", "properties": { "id": 456, "x": 9.758466, "y": 60.537186, "freq": 27, "label": " mind" }, "geometry": { "type": "Point", "coordinates": [ 9.758466, 60.537186 ] } },
{ "type": "Feature", "properties": { "id": 457, "x": -9.71413, "y": 58.432732, "freq": 16, "label": " movie" }, "geometry": { "type": "Point", "coordinates": [ -9.71413, 58.432732 ] } },
{ "type": "Feature", "properties": { "id": 458, "x": 36.902164, "y": -12.415553, "freq": 117, "label": " help" }, "geometry": { "type": "Point", "coordinates": [ 36.902164, -12.415553 ] } },
{ "type": "Feature", "properties": { "id": 459, "x": 64.261101, "y": -14.103967, "freq": 56, "label": " best" }, "geometry": { "type": "Point", "coordinates": [ 64.261101, -14.103967 ] } },
{ "type": "Feature", "properties": { "id": 460, "x": -12.058106, "y": 24.478584, "freq": 11, "label": " picture" }, "geometry": { "type": "Point", "coordinates": [ -12.058106, 24.478584 ] } },
{ "type": "Feature", "properties": { "id": 461, "x": 48.438457, "y": 31.459057, "freq": 34, "label": " focused" }, "geometry": { "type": "Point", "coordinates": [ 48.438457, 31.459057 ] } },
{ "type": "Feature", "properties": { "id": 462, "x": 17.157625, "y": -61.724289, "freq": 5, "label": " tional" }, "geometry": { "type": "Point", "coordinates": [ 17.157625, -61.724289 ] } },
{ "type": "Feature", "properties": { "id": 463, "x": 52.698059, "y": -25.741991, "freq": 50, "label": " white" }, "geometry": { "type": "Point", "coordinates": [ 52.698059, -25.741991 ] } },
{ "type": "Feature", "properties": { "id": 464, "x": 54.338112, "y": -25.099628, "freq": 59, "label": " club" }, "geometry": { "type": "Point", "coordinates": [ 54.338112, -25.099628 ] } },
{ "type": "Feature", "properties": { "id": 465, "x": -46.700638, "y": 17.06819, "freq": 18, "label": " planning" }, "geometry": { "type": "Point", "coordinates": [ -46.700638, 17.06819 ] } },
{ "type": "Feature", "properties": { "id": 466, "x": 54.651085, "y": 23.114639, "freq": 32, "label": " families" }, "geometry": { "type": "Point", "coordinates": [ 54.651085, 23.114639 ] } },
{ "type": "Feature", "properties": { "id": 467, "x": -6.017103, "y": 60.558651, "freq": 28, "label": " african" }, "geometry": { "type": "Point", "coordinates": [ -6.017103, 60.558651 ] } },
{ "type": "Feature", "properties": { "id": 468, "x": 21.14539, "y": 56.376118, "freq": 33, "label": " provided" }, "geometry": { "type": "Point", "coordinates": [ 21.14539, 56.376118 ] } },
{ "type": "Feature", "properties": { "id": 469, "x": 44.220688, "y": 35.942856, "freq": 42, "label": " outside" }, "geometry": { "type": "Point", "coordinates": [ 44.220688, 35.942856 ] } },
{ "type": "Feature", "properties": { "id": 470, "x": 6.651337, "y": -25.646477, "freq": 5, "label": " toilets" }, "geometry": { "type": "Point", "coordinates": [ 6.651337, -25.646477 ] } },
{ "type": "Feature", "properties": { "id": 471, "x": 66.301605, "y": -8.452515, "freq": 46, "label": " black" }, "geometry": { "type": "Point", "coordinates": [ 66.301605, -8.452515 ] } },
{ "type": "Feature", "properties": { "id": 472, "x": -32.26981, "y": -21.935116, "freq": 12, "label": " banned" }, "geometry": { "type": "Point", "coordinates": [ -32.26981, -21.935116 ] } },
{ "type": "Feature", "properties": { "id": 473, "x": 67.211403, "y": -2.345792, "freq": 52, "label": " inside" }, "geometry": { "type": "Point", "coordinates": [ 67.211403, -2.345792 ] } },
{ "type": "Feature", "properties": { "id": 474, "x": 4.257688, "y": -24.80101, "freq": 5, "label": " whites" }, "geometry": { "type": "Point", "coordinates": [ 4.257688, -24.80101 ] } },
{ "type": "Feature", "properties": { "id": 475, "x": 40.672333, "y": -23.846325, "freq": 88, "label": " woman" }, "geometry": { "type": "Point", "coordinates": [ 40.672333, -23.846325 ] } },
{ "type": "Feature", "properties": { "id": 476, "x": -27.301874, "y": -16.159315, "freq": 14, "label": " promoting" }, "geometry": { "type": "Point", "coordinates": [ -27.301874, -16.159315 ] } },
{ "type": "Feature", "properties": { "id": 477, "x": -55.559177, "y": -20.275335, "freq": 12, "label": " character" }, "geometry": { "type": "Point", "coordinates": [ -55.559177, -20.275335 ] } },
{ "type": "Feature", "properties": { "id": 478, "x": 36.95467, "y": -10.863427, "freq": 110, "label": " named" }, "geometry": { "type": "Point", "coordinates": [ 36.95467, -10.863427 ] } },
{ "type": "Feature", "properties": { "id": 479, "x": 7.978358, "y": -17.127932, "freq": 7, "label": " feared" }, "geometry": { "type": "Point", "coordinates": [ 7.978358, -17.127932 ] } },
{ "type": "Feature", "properties": { "id": 480, "x": -37.235279, "y": 33.883305, "freq": 15, "label": " allowing" }, "geometry": { "type": "Point", "coordinates": [ -37.235279, 33.883305 ] } },
{ "type": "Feature", "properties": { "id": 481, "x": 38.013111, "y": -19.856758, "freq": 63, "label": " use" }, "geometry": { "type": "Point", "coordinates": [ 38.013111, -19.856758 ] } },
{ "type": "Feature", "properties": { "id": 482, "x": -20.768875, "y": 50.660252, "freq": 26, "label": " identity" }, "geometry": { "type": "Point", "coordinates": [ -20.768875, 50.660252 ] } },
{ "type": "Feature", "properties": { "id": 483, "x": 2.818942, "y": 59.319775, "freq": 36, "label": " superior" }, "geometry": { "type": "Point", "coordinates": [ 2.818942, 59.319775 ] } },
{ "type": "Feature", "properties": { "id": 484, "x": -4.795954, "y": -37.818733, "freq": 7, "label": " solution" }, "geometry": { "type": "Point", "coordinates": [ -4.795954, -37.818733 ] } },
{ "type": "Feature", "properties": { "id": 485, "x": 8.359723, "y": 61.520916, "freq": 29, "label": " separate" }, "geometry": { "type": "Point", "coordinates": [ 8.359723, 61.520916 ] } },
{ "type": "Feature", "properties": { "id": 486, "x": 4.684248, "y": 62.474766, "freq": 21, "label": " supposedly" }, "geometry": { "type": "Point", "coordinates": [ 4.684248, 62.474766 ] } },
{ "type": "Feature", "properties": { "id": 487, "x": 47.616161, "y": -26.719196, "freq": 93, "label": " really" }, "geometry": { "type": "Point", "coordinates": [ 47.616161, -26.719196 ] } },
{ "type": "Feature", "properties": { "id": 488, "x": -56.151741, "y": -14.658763, "freq": 18, "label": " notion" }, "geometry": { "type": "Point", "coordinates": [ -56.151741, -14.658763 ] } },
{ "type": "Feature", "properties": { "id": 489, "x": 12.348303, "y": 4.991708, "freq": 7, "label": " track" }, "geometry": { "type": "Point", "coordinates": [ 12.348303, 4.991708 ] } },
{ "type": "Feature", "properties": { "id": 490, "x": -18.2906, "y": 2.100943, "freq": 6, "label": " related" }, "geometry": { "type": "Point", "coordinates": [ -18.2906, 2.100943 ] } },
{ "type": "Feature", "properties": { "id": 491, "x": 37.739613, "y": -7.145536, "freq": 123, "label": " early" }, "geometry": { "type": "Point", "coordinates": [ 37.739613, -7.145536 ] } },
{ "type": "Feature", "properties": { "id": 492, "x": 38.451283, "y": -23.029209, "freq": 130, "label": " activists" }, "geometry": { "type": "Point", "coordinates": [ 38.451283, -23.029209 ] } },
{ "type": "Feature", "properties": { "id": 493, "x": -5.124618, "y": 29.2694, "freq": 10, "label": " supportive" }, "geometry": { "type": "Point", "coordinates": [ -5.124618, 29.2694 ] } },
{ "type": "Feature", "properties": { "id": 494, "x": -44.523052, "y": -28.645203, "freq": 22, "label": " legislator" }, "geometry": { "type": "Point", "coordinates": [ -44.523052, -28.645203 ] } },
{ "type": "Feature", "properties": { "id": 495, "x": -7.265063, "y": 28.193275, "freq": 11, "label": " pete" }, "geometry": { "type": "Point", "coordinates": [ -7.265063, 28.193275 ] } },
{ "type": "Feature", "properties": { "id": 496, "x": 56.525185, "y": 21.662697, "freq": 40, "label": " francis" }, "geometry": { "type": "Point", "coordinates": [ 56.525185, 21.662697 ] } },
{ "type": "Feature", "properties": { "id": 497, "x": -6.748511, "y": 32.276203, "freq": 10, "label": " realized" }, "geometry": { "type": "Point", "coordinates": [ -6.748511, 32.276203 ] } },
{ "type": "Feature", "properties": { "id": 498, "x": 66.231155, "y": -7.899807, "freq": 57, "label": " actually" }, "geometry": { "type": "Point", "coordinates": [ 66.231155, -7.899807 ] } },
{ "type": "Feature", "properties": { "id": 499, "x": 1.781228, "y": -22.272217, "freq": 8, "label": " define" }, "geometry": { "type": "Point", "coordinates": [ 1.781228, -22.272217 ] } },
{ "type": "Feature", "properties": { "id": 500, "x": 38.595932, "y": -3.696968, "freq": 195, "label": " man" }, "geometry": { "type": "Point", "coordinates": [ 38.595932, -3.696968 ] } },
{ "type": "Feature", "properties": { "id": 501, "x": 38.793449, "y": 41.5648, "freq": 29, "label": " referred" }, "geometry": { "type": "Point", "coordinates": [ 38.793449, 41.5648 ] } },
{ "type": "Feature", "properties": { "id": 502, "x": 49.44899, "y": 29.755285, "freq": 30, "label": " persons" }, "geometry": { "type": "Point", "coordinates": [ 49.44899, 29.755285 ] } },
{ "type": "Feature", "properties": { "id": 503, "x": 57.897842, "y": -22.40107, "freq": 61, "label": " age" }, "geometry": { "type": "Point", "coordinates": [ 57.897842, -22.40107 ] } },
{ "type": "Feature", "properties": { "id": 504, "x": -28.570915, "y": 45.463219, "freq": 17, "label": " otherwise" }, "geometry": { "type": "Point", "coordinates": [ -28.570915, 45.463219 ] } },
{ "type": "Feature", "properties": { "id": 505, "x": -8.174018, "y": 30.131714, "freq": 8, "label": " assumed" }, "geometry": { "type": "Point", "coordinates": [ -8.174018, 30.131714 ] } },
{ "type": "Feature", "properties": { "id": 506, "x": 54.511009, "y": 23.862381, "freq": 39, "label": " involved" }, "geometry": { "type": "Point", "coordinates": [ 54.511009, 23.862381 ] } },
{ "type": "Feature", "properties": { "id": 507, "x": 65.916092, "y": 5.626077, "freq": 46, "label": " must" }, "geometry": { "type": "Point", "coordinates": [ 65.916092, 5.626077 ] } },
{ "type": "Feature", "properties": { "id": 508, "x": 64.250961, "y": 9.832122, "freq": 34, "label": " jack" }, "geometry": { "type": "Point", "coordinates": [ 64.250961, 9.832122 ] } },
{ "type": "Feature", "properties": { "id": 509, "x": -13.744791, "y": -53.764225, "freq": 5, "label": " jill" }, "geometry": { "type": "Point", "coordinates": [ -13.744791, -53.764225 ] } },
{ "type": "Feature", "properties": { "id": 510, "x": 64.434479, "y": 8.979975, "freq": 52, "label": " activist" }, "geometry": { "type": "Point", "coordinates": [ 64.434479, 8.979975 ] } },
{ "type": "Feature", "properties": { "id": 511, "x": 58.580784, "y": -21.797985, "freq": 56, "label": " taken" }, "geometry": { "type": "Point", "coordinates": [ 58.580784, -21.797985 ] } },
{ "type": "Feature", "properties": { "id": 512, "x": 44.532806, "y": -26.291891, "freq": 81, "label": " name" }, "geometry": { "type": "Point", "coordinates": [ 44.532806, -26.291891 ] } },
{ "type": "Feature", "properties": { "id": 513, "x": -31.372686, "y": 41.474201, "freq": 24, "label": " singer" }, "geometry": { "type": "Point", "coordinates": [ -31.372686, 41.474201 ] } },
{ "type": "Feature", "properties": { "id": 514, "x": 5.881409, "y": -63.119762, "freq": 6, "label": " promptly" }, "geometry": { "type": "Point", "coordinates": [ 5.881409, -63.119762 ] } },
{ "type": "Feature", "properties": { "id": 515, "x": 14.858396, "y": 58.902699, "freq": 29, "label": " filed" }, "geometry": { "type": "Point", "coordinates": [ 14.858396, 58.902699 ] } },
{ "type": "Feature", "properties": { "id": 516, "x": 67.116119, "y": -4.081448, "freq": 46, "label": " license" }, "geometry": { "type": "Point", "coordinates": [ 67.116119, -4.081448 ] } },
{ "type": "Feature", "properties": { "id": 517, "x": 67.326866, "y": -0.82192, "freq": 53, "label": " friend" }, "geometry": { "type": "Point", "coordinates": [ 67.326866, -0.82192 ] } },
{ "type": "Feature", "properties": { "id": 518, "x": 66.957626, "y": 1.452776, "freq": 43, "label": " paul" }, "geometry": { "type": "Point", "coordinates": [ 66.957626, 1.452776 ] } },
{ "type": "Feature", "properties": { "id": 519, "x": 14.411428, "y": 60.333031, "freq": 32, "label": " barwick" }, "geometry": { "type": "Point", "coordinates": [ 14.411428, 60.333031 ] } },
{ "type": "Feature", "properties": { "id": 520, "x": -49.358265, "y": -27.039488, "freq": 13, "label": " basic" }, "geometry": { "type": "Point", "coordinates": [ -49.358265, -27.039488 ] } },
{ "type": "Feature", "properties": { "id": 521, "x": -44.498901, "y": 22.908813, "freq": 20, "label": " message" }, "geometry": { "type": "Point", "coordinates": [ -44.498901, 22.908813 ] } },
{ "type": "Feature", "properties": { "id": 522, "x": 36.910923, "y": -11.055342, "freq": 81, "label": " four" }, "geometry": { "type": "Point", "coordinates": [ 36.910923, -11.055342 ] } },
{ "type": "Feature", "properties": { "id": 523, "x": -58.008251, "y": -16.161482, "freq": 16, "label": " subsequent" }, "geometry": { "type": "Point", "coordinates": [ -58.008251, -16.161482 ] } },